"#","Institution Name","City","State","Latitude","Longitude"
"1","Botanical Garden Universiteti I Tiranes","Tirana","","41.3077","19.8275"
"2","Jardin Botanique de Universite d‘Alger","Alger","","36.7755","3.0597"
"3","Jardin Botanique du Hamma","Algiers","Algeria","36.7484","3.07574"
"4","Jardin Botanique","Wilaya De Bechar","","31.52","-2.22"
"5","Botanic Garden of Salazar and Floristic Reserve","Quilombo","Kuanza Norte","-9.2000","14.5400"
"6","The Threatened and Endangered Species Garden","Cap Juluca","West Indies","18.2205","-63.0686"
"7","Test Garden Profile 1 - Temporary- Mexico","","",NA,NA
"8","Test Garden Profile 2 - Temporary- China","","",NA,NA
"9","Test Garden Profile 3 - Temporary","","",NA,NA
"10","Antigua Botanic Gardens","St Johns","","17.1175","-61.8455"
"11","Complejo Ecológico de América","América","Buenos Aires","-34.65315","-58.7682"
"12","Jardín Botanico ""Edgardo N. Orfila""","Azul","","-36.768308","-59.880736"
"13","Jardín Botánico ""Pillahuincó""","Bahía Blanca","Buenos Aires","-38.06472","-61.97222"
"14","Jardín Botánico de Bahía Blanca","Bahia Blanca","Buenos Aires","-38.73911","-62.24219"
"15","Fundación Temaikén","Buenos Aires","","34.3455876","-58.7954552"
"16","Jardín Botánico de la ciudad de Buenos Aires ""Carlos Thays""","Buenos Aires","Buenos Aires","-34.5828","-58.4190"
"17","Jardín Didáctico de Especies Nativas","Buenos Aires","Buenos Aires","-34.60514","-58.43769"
"18","Jardín Japonés","Buenos Aires","Capital Federal","-34.5755","-58.40918"
"19","Jardín Botánico Cuenta Soles","Carpintería","San Luis","-31.9877884","-65.2434587"
"20","Jardín Botánico de Chacras de Coria","Chacras de Coria","Mendoza","-32.4799","-68.5200"
"21","Jardín Botánico ""Lucien Hauman""","Ciudad Autónoma de Buenos Aires","Buenos Aires","-34.596056","-58.483096"
"22","Museo Casa y Jardín ""Augusto G. Schulz""","Colonia Benítez","Chaco","-27.446442","-58.977936"
"23","Jardín del Árido Patagónico","Comodoro Rivadavia","Chubut","-54.80752","-68.32566"
"24","Proyecto Jardín Botánico de la Fundación Forestar","Concepción","Tucumán","-26.365266","-65.590849"
"25","Proyecto Jardín Botánico Tafí del Valle","Concepción","Tucumán","-26.858605","-65.724875"
"26","Jardín Botánico Aníbal Oscar Carnevalini (Ca´a Porâ)","Concordia","Entre Ríos","-31.3969","-58.01716"
"27","Jardín Botánico ""Gaspar Xuárez sj""","Córdoba","Córdoba","-31.491082","-64.241523"
"28","Jardín Botánico de Córdoba","Córdoba","Córdoba","-31.3860","-64.2499"
"29","Arboretum San Miguel “Casco”","Coronel Pringles","Buenos Aires","38.100420","61.203340"
"30","Jardín Botánico “Nuestra Señora del Huerto”","Corrientes","Corrientes","-27.46992","-58.83549"
"31","Jardín Botánico ""Cascada Escondida""","El Bolsón","Río Negro","-41.967817","-71.515542"
"32","Jardín Botánico 'Selva Misionera'","Eldorado","Misiones","-26.405161","-54.665225"
"33","Proyecto de Jardín Botánico de la Facultad de Agronomía y Veterinaria","Esperanza","Santa Fe","-31.58749","-60.70608"
"34","Jardín Botánico de Ezeiza","Ezeiza","Buenos Aires","-34.7777","-58.3483"
"35","Arboretum de Especies Nativas y Exóticas de la  Facultad de Recursos Naturales","Formosa","3600","-26.1833","-58.1833"
"36","Arboretum Guaycolec","Formosa","Formosa","-26.192964","-58.199433"
"37","Jardín Botánico 'Dr. Miguel J. Culaciati'","Huerta Grande","Córdoba","-31.0768","-64.4919"
"38","Jardín Botánico ""Arturo E. Ragonese"" JBAER","Hurlingham","Buenos Aires","-34.6104","-58.6745"
"39","Jardín Botánico y Arboretum ""Carlos Spegazzini""","La Plata","Buenos Aires","-34.91223","-57.93111"
"40","Jardín Botánico de Lago Puelo","Lago Puelo","Chubut","-42.090978","-71.611140"
"41","Jardín  Agrobotánico de Santa Catalina","Llavallol","Buenos Aires","-34.80004","-58.41918"
"42","Grigadale Arboretum","Loberia","Buenos Aires","-38.355720","-58.681341"
"43","Jardín Botánico EMAJEA","Lomas de Zamora","Buenos Aires","-34.774233","-58.424777"
"44","Jardín Botánico Oro Verde","Oro Verde","Entre Ríos","-31.8293","-60.5243"
"45","Jardín Botánico Alberto Roth","Posadas","Misiones","-27.4081","-55.89666"
"46","Jardín Botánico de la Patagonia Extra-andina","Puerto Madryn","Chubut","-42.78478","-65.00895"
"47","Jardín del Museo de Ciencias Naturales “Augusto Gustavo Schulz”","Resistencia","Chaco","27.445968","58.977313"
"48","Reserva Natural Urbana Bosque Autóctono El Espinal","Río Cuarto","Cordoba","-33.112217","-64.299428"
"49","Jardín Botánico Municipal de San Carlos Centro","San Carlos Centro","Santa Fe","-31.736872","-61.092713"
"50","Jardín Botánico de Bariloche","San Carlos de Bariloche","Río Negro","-41.141615","-77.313779"
"51","Jardín Botánico Isla Victoria","San Carlos de Bariloche","Rio Negro province","-40.941641","-71.539918"
"52","Jardín Botánico Universidad Nacional de San Luis","San Luis","San Luis","-33.29227","-66.34076"
"53","Arboretum Facultad de Agronomía y Zootecnia","San Miguel de Tucumán","Tucumán","-26.83895","-65.2307"
"54","Jardín Botánico Horco Molle","San Miguel de Tucumán","Tucumán","-26.79272","-65.31607"
"55","Jardín Botánico de la Fundación Miguel Lillo","San Miguel deTucumán","Tucumán","-26.8311","-65.2217"
"56","Jardín Botánico de la Universidad San Pablo Tucumán","San Pablo","Tucumán","-26.868900","-65.318709"
"57","Proyecto Jardín Botánico Municipal Yvy Porá","San Vicente","Misiones","-26.990995","-54.490830"
"58","Jardín Botánico ""Lorenzo R. Parodi""","Santa Fe e la Vera Cruz","Santa Fe","-31.58749","-60.70608"
"59","Jardín Botánico 'Juan Williamson'","Santa Rosa","La Pampa","-36.620411","-64.289909"
"60","Jardín Botánico 'Ingeniero Lucas D. Roic'","Santiago del Estero","Santiago del Estero","-27.769","-64.26783"
"61","Jardín Botánico de Altura","Tilcara","Jujuy","-23.57684","-65.39528"
"62","Jardín Botánico Provincial de La Pampa","Toay","La Pampa","-36.669991","-64.351620"
"63","Jardín Botánico El Potrero","Victoria","Entre Rios","-32.606780","-60.119261"
"64","Jardín Botánico “El Pantanillo”","Villa de Merlo","San Luis","-32.334604","-65.009016"
"65","Jardín Botánico- Departamento de Ciencias Agropecuarias- FICA","Villa Mercedes","San Luis","-33.68471","-65.47211"
"66","Sevan Botanical Garden","Sevan","Sevan","40.5475","44.9553"
"67","Vanadzor Botanical Garden","Vanadzor","","40.4900","44.3000"
"68","Yerevan Botanic Garden of the Institute of Botany of the National Academy of Sciences of Armenia","Yerevan","","40.1666","44.5166"
"69","Botanic Gardens of South Australia","Adelaide","South Australia","-34.918446","138.611954"
"70","Mount Lofty Botanic Garden","ADELAIDE","South Australia","-34.98632","138.71663"
"71","South Australian Seed Conservation Centre - Adelaide Botanic Gardens","Adelaide","South Australia","-34.918446","138.611954"
"72","Waite Arboretum","Adelaide","South Australia","-34.9654","138.62816"
"73","Albury Botanic Garden","Albury","New South Wales","-36.0814158","146.9101429"
"74","Alice Springs Desert Park","Alice Springs","Northern Territory","-23.706456","133.83236"
"75","Northern Territory Seed Bank - Alice Springs","Alice Springs","Northern Territory","-23.706456","133.83236"
"76","Olive Pink Botanic Garden","Alice Springs","Northern Territory","-23.707704","133.882334"
"77","Alexandra Gardens","Ararat","Victoria","-37.28025","142.93111"
"78","Fangorn, private garden","Armidale","New South Wales","-30.48639","151.59667"
"79","Atherton Rainforest Arboretum and Herbarium Reference Collection","Atherton","","-17.25822","145.48525"
"80","Auburn Botanical Gardens","AUBURN","NSW","-33.8583495","151.0169354"
"81","Ballarat Botanic Gardens","Ballarat","Victoria","-37.5362494","143.8726117"
"82","Kirk's Water wise Garden","Ballarat","","-37.55177","143.93168"
"83","Lake Esmond Reserve","Ballarat","","-37.57503","143.87464"
"84","Sylvan Grove Native Garden","Bankstown","","-33.97878","151.00037"
"85","Wirrimbirra Field Study Centre and Sanctuary","Bargo","","-34.261621","150.574061"
"86","Eurobodalla Regional Botanic Gardens","BATEMAN'S BAY","","-35.75323","150.16542"
"87","Queen Victoria Park","Beechworth","","-36.35567","146.69172"
"88","Bellingen Hospital Grounds","Bellingen","","-30.457233","152.893383"
"89","Benalla Botanical Gardens","Benalla","","-36.553275","145.978442"
"90","Bendigo Botanic Gardens, White Hills","Bendigo","Victoria","-36.7238055","144.3064158"
"91","Wittunga Botanic Garden","Blackwood","South Australia","-35.0238338","138.6094484"
"92","Illawarra Grevillea Park","Bulli","","-34.3311817","150.9120224"
"93","Bundaberg Botanic Gardens","Bundaberg","Queensland","-24.85445","152.32421"
"94","Buninyong Botanic Gardens","Buninyong","","-37.65289","143.88719"
"95","Burnley Gardens","Burnley","","-37.8296","145.02283"
"96","The Cairns Botanic Gardens","Cairns","Queensland","-16.8989865","145.7477678"
"97","Maranoa Gardens","Camberwell","Victoria","-37.8101008","145.0898296"
"98","Camperdown Botanic Gardens","Camperdown","","-38.23695","143.11773"
"99","Australian National Botanic Gardens","Canberra","Australian Capital Territory","-35.278594","149.108481"
"100","Genetic Resources Section","Canberra","","-35.273161","149.114717"
"101","National Arboretum Canberra","Canberra","Australian Capital Territory","-35.287797","149.069324"
"102","National Seed Bank - Australian National Botanic Gardens","Canberra","Australian Capital Territory","-35.278594","149.108481"
"103","Redlands Indigiscape Centre","Capalaba","QLD","-27.5476844","153.2172087"
"104","Galaringi Botanic Parkland","Carlingford","","-33.783948","151.053324"
"105","Castlemaine Botanical Garden","Castlemaine","","-37.05262","144.21557"
"106","North Coast Regional Botanic Garden","Coffs Harbour","NSW","-30.295381","153.124429"
"107","Colac Botanical Gardens","Colac","","-38.33258","143.59025"
"108","Peter Francis Points Arboretum","Coleraine","","-37.60798","141.68475"
"109","Cooktown Botanic Gardens","Cooktown","QLD","-15.4706637","145.261143"
"110","Coolgardie Arboretum","Coolgardie","","-30.95403","121.16234"
"111","Demesne Farm Minor Arboretum","Coomba Park","","-32.25475","152.45478"
"112","Dame Elisabeth Murdoch Arboretum","Cranbourne","","-38.155986","145.176429"
"113","Royal Botanic Gardens Victoria - Cranbourne Gardens","Cranbourne","Victoria","-38.1329334","145.2734743"
"114","George Brown Darwin Botanic Gardens","Darwin","NT","-12.4465143","130.8349462"
"115","George Brown Darwin Botanic Gardens SEED BANK","Darwin","NT","-12.4465143","130.8349462"
"116","Wombat Hill Botanical Gardens","Daylesford","","-37.3434","144.15088"
"117","Stony Range Flora Reserve","Dee Why","","-33.7578252","151.2827506"
"118","Tasmanian Arboretum Inc","Devonport","Tasmania","-41.230875","146.298497"
"119","Wail Arboretum","Dimboola","","-36.50804","142.09093"
"120","Daintree Wilderness Refugium","Diwan","Queensland","-16.202791","145.406573"
"121","Fruit Spirit Botanical Garden","Dorroughby","","-28.65006","153.35933"
"122","Emerald Botanic Gardens","Emerald","","-23.5317764","148.1654455"
"123","Esperance (Helms) Exotic & Indigenous Arboretum","Esperance","","-33.80395","121.8805"
"124","George Pentland Botanic Gardens","Frankston","","-38.1529953","145.1289616"
"125","Gayndah Botanical Gardens and Pioneer Place","Gayndah","","-25.62369","151.63943"
"126","Geelong Botanic Gardens","Geelong","VIC","-38.1490426","144.3768389"
"127","Gladstone Tondoon Botanic Gardens","Gladstone","QLD","-23.8946159","151.2608022"
"128","Myall Park Botanic Garden","Glen Morgan","Queensland","-27.21344","149.63024"
"129","Glenbrook Native Plant Reserve","Glenbrook","","-33.7642454","150.6252432"
"130","Goondiwindi Botanic Gardens of the Western Woodlands","Goondiwindi","","-28.53184","150.27982"
"131","Hamilton Botanic Gardens","Hamilton","VIC","-37.7468076","142.0238587"
"132","Hunter Region Botanic Gardens","Heatherbrae","NSW","-32.802378","151.719564"
"133","Savill's Garden","Heywood","","-38.1501","141.63876"
"134","Royal Tasmanian Botanical Gardens","Hobart","TAS","-42.866177","147.332425"
"135","Tasmanian Seed Conservation Centre (TSCC)","Hobart","Tasmania","-42.86422","147.32896"
"136","Grevillea Study Group Collection","Illawarra","","-34.329359","150.908833"
"137","Booderee Botanic Gardens","Jervis Bay","JBT","-35.12112","150.68191"
"138","Kalgoorlie Inland Forest Arboretum","Kalgoorlie","","-30.7443916","121.4491889"
"139","Karwarra Australian Native Botanic  Garden (Yarra Ranges Council)","Kalorama","Victoria","-37.81683","145.38003"
"140","Keilor Botanic Gardens","Keilor","","-37.7131148","144.8569644"
"141","Threatened Flora Seed Centre – Western Australia","Kensington","Western Australia","-31.99553","115.88309"
"142","Denbly","Killarney","","-38.33967","142.32"
"143","Kings Park and Botanic Garden","Kings Park","Western Australia","-31.964312","115.831467"
"144","Bongil Bongil Garden","Korora Basin","","-30.3738617","153.087739"
"145","Gisborne Botanic Gardens","Kyneton","","-37.48414","144.58824"
"146","Kyneton Botanic Gardens","Kyneton","","-37.25396","144.44994"
"147","Cataract Gorge","Launceston","","-41.44606","147.118912"
"148","Heritage Forest","Launceston","","-41.4099132","147.1398567"
"149","Mackay Regional Botanic Gardens","Mackay","QLD","-21.157346","149.158928"
"150","Mary Cairncross Scenic Reserve","Maleny","Queensland","-26.77774","152.88025"
"151","Malmsbury Botanic Gardens","Malmsbury","","-37.1885618","144.3828515"
"152","Monsoon Tropical Botanic Gardens","Mareeba","","-16.9911644","145.4223803"
"153","Phillips Gardens","Maryborough","","-25.51866","152.66713"
"154","Carlton Gardens","Melbourne","Victoria","-37.80648","144.97123"
"155","La Trobe University","Melbourne","","-37.718964","145.045476"
"156","Royal Botanic Gardens, Victoria - Melbourne Gardens","Melbourne","Victoria","-37.8291413","144.9798453"
"157","University of Melbourne Grounds and Gardens","Melbourne","Victoria","-37.796539","144.959015"
"158","Victorian Conservation Seedbank - RBG, Melbourne","Melbourne","Victoria","-37.8291413","144.9798453"
"159","Melton Botanic Garden","Melton","Victoria","-37.689535","144.589620"
"160","Nindethana","Meningie","","-35.64127","139.22066"
"161","Australian Inland Botanic Garden","MILDURA","VIC","-34.13613","142.14754"
"162","Mossman Botanic Garden Inc.","Mossman","Queensland","-16.4571012","145.3546524"
"163","The Botanical Ark","Mossman","Queensland","-16.36904","145.32783"
"164","Australian Botanic Garden, Mount Annan, The","Mount Annan","New South Wales","-34.055266","150.77572"
"165","Australian PlantBank - Mount Annan Botanic Garden","Mount Annan","New South Wales","-34.06262","150.76717"
"166","Blue Mountains Botanic Garden, Mount Tomah","Mount Tomah","New South Wales","-33.5385949","150.4218137"
"167","Brunswick Valley Heritage Park","Mullumbimby","","-28.547502","153.500029"
"168","Burrendong Botanic Garden & Arboretum","Mumbil","NSW","-32.722727","149.047517"
"169","Wilson Botanic Park","Narre Warren","","-38.0256209","145.3399273"
"170","Dryandra Inland Arboretum","Narrogin","","-32.78417","116.96691"
"171","Brookvale Park Botanic Gardens","Oakey","","-27.4339554","151.7209352"
"172","Currency Creek Arboretum Eucalypt Research Centre","Old Reynella","South Australia","-35.454194","138.760867"
"173","National Rhododendron Garden","Olinda","Victoria","-37.846136","145.3731211"
"174","Parks Victoria, Dandenong Ranges Gardens","Olinda","Victoria","-37.852225","145.36859"
"175","Pirianda Garden","Olinda","","-37.8744519","145.3772712"
"176","R J Hamer Arboretum","Olinda","","-37.8544133","145.3821133"
"177","Orange Botanic Gardens","Orange","New South Wales","-33.2564466","149.0969386"
"178","Waldon Gardens","Owen","","-34.26775","138.54685"
"179","Centennial Park and Moore Park Trust","Paddington","","-33.897218","151.22676"
"180","Big Brook Forest Arboretum","Pemberton","","-34.40519","116.00407"
"181","Wilga Park Arboretum","Piangil","Victoria","-35.0540798","143.3103246"
"182","Australian Arid Lands Botanic Garden","Port Augusta","SA","-32.462246","137.7445694"
"183","Port Fairy Botanic Gardens","Port Fairy","","-38.3886","142.24356"
"184","City of Yarra - Parks Division","RICHMOND","VIC","-37.818461","145.000619"
"185","Kershaw Botanic Gardens","Rockhampton","Queensland","-23.399196","150.489963"
"186","Rockhampton Botanic Gardens","Rockhampton","Queensland","-23.399208","150.489952"
"187","Roxby Downs Arboretum","Roxby Downs","South Australia","-30.56478","136.89786"
"188","George Tindale Memorial Gardens","Sherbrooke","","-37.8802887","145.3658588"
"189","Parks Victoria - Alfred Nicholas Memorial Gardens","Sherbrooke","VIC","-37.8742854","145.3592888"
"190","Sherwood Arboretum","Sherwood","Queensland","-27.53109","152.9743"
"191","Inala Jurassic Garden","South Bruny","Tasmania","-43.3898634","147.2508635"
"192","Perth Zoo","South Perth","Western Australia","-31.977218","115.854394"
"193","Ku-Ring-Gai Wildflower Garden","St Ives","","-33.706253","151.179569"
"194","St. Kilda Botanic Garden","St. Kilda","Victoria","-37.870437","144.983898"
"195","Emu Creek Arboretum","Strathfieldsaye","","-36.86755","144.34983"
"196","Joseph Banks Native Plant Reserve","Sutherland","","-34.0212422","151.0846208"
"197","Royal Botanic Gardens Sydney","Sydney","New South Wales","-33.8644859","151.217536"
"198","Tamborine Mountain Botanic Gardens","Tamborine Mt.","","-27.9154","153.20357"
"199","Maroochy Botanic Gardens","Tanawha","Queensland","-26.71464","153.01769"
"200","Lake McDonald Botanic Gardens","Tewantin","","-26.38783","152.92977"
"201","Noosa Botanic Gardens","Tewantin","Queensland","-26.38783","152.92977"
"202","Tibooburra Outback Botanic Gardens","Tibooburra","","-29.42831","142.01138"
"203","Brisbane Botanic Gardens","Toowong","Queensland","-27.4767276","152.9753942"
"204","Queensland Seeds for Life - Brisbane Botanic Gardens","Toowong","Queensland","-27.4767276","152.9753942"
"205","Laurel Bank Park","Toowoomba","","-27.5624658","151.9444339"
"206","Queens Park Gardens - Toowoomba","Toowoomba","Queensland","-27.5605006","151.9616309"
"207","Townsville Botanic Gardens","Townsville","Queensland","-19.2903136","146.7820733"
"208","Nangawooka Flora Park","Victor Harbor","","-35.5175676","138.6334059"
"209","Wagga Wagga Botanic Gardens","Wagga Wagga","","-35.13109","147.36567"
"210","Warrnambool Botanic Gardens","Warrnambool","","-38.37394","142.48454"
"211","Werribee Park","Werribee","","-37.9326571","144.6707743"
"212","Western Australia Seed Technology Centre (WASTC) - Kings Park and Botanic Garden","West Perth","Western Australia","-31.964312","115.831467"
"213","Wollongong Botanic Gardens","Wollongong","NSW","-34.4102497","150.8747475"
"214","Dulegal Native Plant Arboretum","Woolomin","","-31.34405","151.14351"
"215","Fairhill Native Plants & Botanic Gardens","Yandina","","-26.53765","152.96362"
"216","Westbourne Woods","Yarralumla","","-35.307098","149.093293"
"217","Alpengarten Franz Mayr-Melnhof","Frohnleiten","","47.2683","15.3253"
"218","Botanischer Garten, Universitat Graz","Graz","","47.0833","15.4500"
"219","Landesmuseum Joanneum und Alpengarten Rannach","Graz","","47.0805","15.4930"
"220","Alpengarten Patscherkofel und Botanischer Garten Innsbruck","Innsbruck","Tirol","47.26758","11.38074"
"221","Botanischer Garten Innsbruck und Aplengarten Patscherkofel","Innsbruck","Tirol","47.2500","11.5000"
"222","Alpenblumengarten Kitzbüheler Horn","Kitzbühel","","47.46026","12.39039"
"223","Botanical Garden of the Carinthian Botanic Center (Landesmuseum Kärnten)","Klagenfurt","Carinthia","46.6166","14.3000"
"224","Botanischer Garten und Naturkundliche Station der Stadt Linz","Linz","","48.2879","14.2913"
"225","Okopark, Biologiezentrum des OO Landesmuseums","Linz","","48.3386","14.2942"
"226","Botanischer Garten der Universitaet Salzburg","Salzburg","","47.8004","13.0444"
"227","Arche Noah","Schloss Schiltern","","48.5159","15.6196"
"228","Tier- und Naturpark Herberstein","St Johann/herberst","","47.2200","14.8675"
"229","Agrarium","Steinerkirchen","","48.0781","13.9576"
"230","Botanischer Garten, Veterinarmedizinische Universitat","Vienna","","48.2805","16.4153"
"231","Bundesgärten Wien und Innsbruck (Belvedere)","Vienna","","48.1943","16.4025"
"232","Bundesgärten Wien und Innsbruck (Burggarten)","Vienna","","48.2089","16.3700"
"233","Core Facility Botanical Garden","Vienna","","48.2000","16.3833"
"234","Department of Biogeography & Botanic Garden, University of Vienna SEED BANK","Vienna","","48.176993","16.314056"
"235","Department of Pharmacognosy, Univ. Vienna","Vienna","","48.1833","16.3833"
"236","Höhere Bundeslehr- und Versuchsanstalt für Gartenbau Wien - Schönbrunn","Vienna","","48.1751","16.2643"
"237","Alpengarten Villacher Alpe","Villach","Austria","46.3550","13.4450"
"238","Botanische Sammlungen der Republik Osterreich","Wien","","48.1813786","16.3136861"
"239","Bundesgärten Wien und Innsbruck (Schönbrunn)","WIEN","","48.1757408","16.2586298"
"240","Universität für Bodenkultur Wien Department für Integrative Biologie und Biodiversitätsforschung","Wien","","48.2339","16.3180"
"241","Botanical Garden Komarov, Herbarium & Baku Botanical Institute","Baku","","40.3834","49.8932"
"242","Central Botanical Garden of National Academy of Sciences of Azerbaijan","Baku","Azerbaijan","40.3834","49.8932"
"243","Institute of Dendrology Azerbaijan National Academy of Sciences","Baku","Azerbaijan","40.4841","50.1651"
"244","Arboretum Azerb NIILH","Barda","","40.3831","47.1186"
"245","Leon Levy Native Plant Preserve","Governors Harbour","Eleuthera","25.1881025","-76.2146017"
"246","Bahamas Botanic Garden","Nassau","","25.0661","-77.3390"
"247","Nassau Botanical Gardens","Nassau","","25.0661","-77.3390"
"248","The Retreat Garden","NASSAU","","25.0661","-77.3390"
"249","Baldah Garden","Dhaka","","23.7184","90.4179"
"250","Dhaka University Botanic Garden","Dhaka","","23.7099","90.4071"
"251","Mirpur National Botanic Garden","Dhaka","","24.0000","90.0000"
"252","Bangladesh Agricultural University Botanic Garden","Mymensingh","","24.7492","90.4026"
"253","Plant Conservation and Research Foundation","Mymensingh","","24.7196252","90.4244697"
"254","Andromeda Botanic Gardens","St Joseph","","13.2023","-59.5267"
"255","Flower Forest","St Joseph","","13.2023","-59.5267"
"256","Farley Hill National Park","St Peter","","13.2606","-59.6087"
"257","Arboretum Bel NIILH","Gomel","","52.5266","31.0216"
"258","Forest University of the Belarus National Science Academy","Gomel","","52.45995","30.9637"
"259","Winter garden of Gomel Park and Palace Ensemble","Gomel","Gomel Voblast","52.423491","31.015710"
"260","The Belorussian Agricultural Academy","Gorky","","53.6500","28.6100"
"261","The Botanical Garden of the Technological Institute","Logoviszcze","","53.9677","27.5765"
"262","Belarus Experimental Botanical Institute","Minsk","","53.9162","27.61269"
"263","Central Botanical Garden","MINSK","","53.9677","27.5765"
"264","Minsk State University Botanical Garden","Minsk","","53.9677","27.5765"
"265","Botanic Garden Vitebsk Pedagogical Institute","Vitebsk","","55.2025","28.7091"
"266","Botanical Garden of the Institute of Medicine","Vitebsk","","55.2025","28.7091"
"267","The Botanic Garden of the Royal Zoological Society, Antwerp","Antwerp","","51.2187","4.3935"
"268","The Royal Zoological Society of Antwerp","Antwerp","Belgium","51.2049","4.4141"
"269","Provinciaal Domein","Beernem","","51.1497","3.3418"
"270","Hof ter Saksen Arboretum","Beveren","","51.1986","4.2388"
"271","Jardin des Plantes Medicinales","Brussels","","50.8484","4.4310"
"272","Jardin Experimental Jean Massart","Brussels","","50.8084","4.4383"
"273","Provinciaal Domein Rivierenhof","Deurne","","51.1896","4.4612"
"274","Arboretum Provinciaal Domein Het Leen","Eeklo","","51.1666","3.5666"
"275","Faculte des Sciences Agronomiques de l'Etat","Gembloux","","50.5703","4.6915"
"276","Conservatoire Botanique de Wallonie","Genappe","","50.6051","4.4787"
"277","Bokrijk Arboretum","Genk (Bokrijk)","","50.9669","5.4898"
"278","De wereld van Kina: de Tuin","Ghent","","51.0351","3.4327"
"279","Ghent University Botanic Garden","Ghent","","51.0333","3.7168"
"280","Arboretum Groenendaal - Flemish Forest Department - Houtvesterij Groenendaal","Groenendaal (Hoeilaart)","","50.7590","4.4577"
"281","Arboretum Wespelaar","Haacht-Wespelaar","","50.9596","4.6375"
"282","Provinciedomein Huizingen","Huizingen","Flanders","50.7491","4.2744"
"283","Kalmthout Arboretum","KALMTHOUT","","51.0000","4.2500"
"284","Leuven Botanic Garden","Leuven","","50.8833","4.7000"
"285","Les Espaces Botaniques de l'Universite de Liège","Liège (Sart Tilman)","","50.578292","5.588264"
"286","Vrijbroekpark","Mechelen","","51.0201","4.4615"
"287","Meise Botanic Garden","Meise","België","50.9166","4.3166"
"288","National Botanic Garden of Belgium- Seed Bank","Meise","","50.927926","4.326917"
"289","Parc de Mariemont","Morlanwelz","","50.4942","4.2427"
"290","Arboretum Robert Lenoir","Rendeux","","50.2166","5.5000"
"291","Bijentuin","Schilde","","51.2577","4.5813"
"292","Dodoenstuin","Schilde","","51.2577","4.5813"
"293","Geografisch Arboretum Tervuren","Tervuren","","50.8000","4.4833"
"294","Botanic and Zoological Garden","Belmopan","","17.2534","-88.7713"
"295","TROPICALES, Institute for Tropical Architecture and Agriculture","Belmopan","","17.2534","-88.7713"
"296","Twin Town","Cayo","","17.15504","-89.0698"
"297","Belize Botanic Gardens","San Ignacio","Cayo district","17.1600","-89.0600"
"298","Sanctuaire des Singes de Drabo Gbo","","","6.3015","2.1891"
"299","Jardin Botanique at Zoologique","Cotonou","","6.3505","2.4331"
"300","Jardin Botanique et Zoologique de l'Université d'Abomey-Calavi","Cotonou","","6.3505","2.4331"
"301","Jardin Botanique Laboratoire de Biologie Vegetale","Cotonou","","6.3505","2.4331"
"302","Jardin des Plantes et de la Nature","Porto Novo","","6.4779","2.6323"
"303","Botanic Garden of Papatia","Sinaissire","","9.3076","2.3158"
"304","The Bermuda Botanical Gardens","HAMILTON","HM AX","32.3293","-64.7060"
"305","Royal Botanical Garden, Serbithang","Serbithang","Thimphu","27.4405","89.6730"
"306","Jardin Botanico de Martin Cárdenas","Cochabamba","Cochabamba","-17.3841","-66.1667"
"307","Jardín Botánico Municipio Comarapa","Comarapa","Santa Cruz","-17.9045455","-64.5466521"
"308","Herbario Nacional de Bolivia","La Paz","","-16.4990","-68.1462"
"309","Jardín Botánico La Paz","La Paz","La Paz","-16.499","-68.1462"
"310","Jardín Botánico Municipal de La Paz (EMAVERDE)","La Paz","La Paz","-16.499","-68.1462"
"311","Jardin Botanico Municipal de Santa Cruz de la Sierra","Santa Cruz de la Sierra","Santa Cruz","-16.9778","-61.1304"
"312","Alpinetum Treberic (Alpine garden)","Sarajevo","","43.8607","18.4213"
"313","Arboretum Parsino Brdo","Sarajevo","","43.8607","18.4213"
"314","Arboretum Slatina","Sarajevo","","43.8607","18.4213"
"315","Sarajevo Botanical Garden (Botanicki vrt Zemaljskog muzeja BiH Sarajevo)","Sarajevo","","43.8607","18.4213"
"316","Botswana National Botanical Garden","GABORONE","","-24.6570","25.9089"
"317","Usina de Arte","Agua Preta","Pernambuco","-7.3747033","-37.4835196"
"318","Jardim Botânico Araribá","Amparo","São Paulo","-22.7238642","-46.8458276"
"319","Jardim Botânico Municipal de Bauru","Bauru","São Paulo","-22.3049","-49.0709"
"320","Museu Paraense Emílio Goeldi e Parque Zoobotânico","Belém","Pará","-1.4517","-48.4781"
"321","Rodrigues Alves Wood","Belem","Para","-1.4550","-48.5023"
"322","Fundação de Parques Municipais e Zoobotânica","Belo Horizonte","Minas Gerais","-19.8157","-43.9542"
"323","Museu de Historia Natural e Jardim Botânico","Belo Horizonte","Minas Gerais","-19.8157","-43.9542"
"324","Jardim Botânico do Instituto de Biociências da UNESP- Botucatu","Botucatu","São Paulo","-22.8903","-48.4553"
"325","Jardim Botânico de Brasilia","Brasília","Distrito Federal","-15.8519","-47.8896"
"326","Instituto Inhotim Museum and Gardens","Brumadinho","Minas Gerais","-20.127574","-44.215206"
"327","Jardim Botânico do Instituto Agronômico de Campinas","Campinas","São Paulo","-22.8757","-47.0725"
"328","Jardim Botânico de Caxias do Sul","CAXIAS DO SUL","","-29.1678","-51.1793"
"329","Jardim Botânico de Mato Grosso","Cuiabá","Mato Grosso","-12.92712","-38.43861"
"330","Jardim Botânico de Curitiba (Botanical Garden of Curitiba)","Curitiba","","-25.4283","-49.2732"
"331","Native Plant Experimental Garden","Florianopolis","","-27.5979","-48.5481"
"332","Parque Botânico do Ceará","Fortaleza","Ceará","-3.7258","-38.5132"
"333","Jardim Zoobotânico Municipal de Franca","Franca","São Paulo","-20.52864","-47.39378"
"334","Jardim Botânico Amália HermanoTeixera","Goiânia","Goiás","-16.6799","-49.2550"
"335","Joao Pessoa Botanical Gardens","Joao Pessoa","","-7.1153","-34.8610"
"336","Parque Zoobotânico Arruda Câmara","João Pessoa","Paraíba","-7.1628","-34.8631"
"337","Jardim Botânico da Universidade Univille","Joinville","Santa Catarina","-26.892089","-48.167338"
"338","Jardim Botânico de Jundiaí - Valmor de Souza","Jundiai","São Paulo","-23.170682","-46.902099"
"339","Lajeado Botanic Garden","Lajeado","Rio Grande do Sul","-29.4685","-51.9652"
"340","Jardim Botânico de Londrina","Londrina","Paraná","-23.31068","-51.15886"
"341","Jardim Botânico de Manaus Adolpho Ducke","Manaus","Amazonas","-10.660607","-35.288085"
"342","Jardim Botanico de Niteroi","Niteroi","","-22.8807","-43.1043"
"343","Neotropicum Botanical Gardens","Niteroi","Rio de Janeiro","-22.9166","-42.9668"
"344","Jardim Botânico Plantarum","Nova Odessa","São Paulo","-22.7836","-47.2875"
"345","Jardim Botanico de Paulinia","Paulinia","","-22.7616","-47.1540"
"346","Jardim Botanico de Pipa","Pipa","","-6.2333","-35.0500"
"347","Fundação Jardim Botânico de Pocos de Caldas","Poços de Caldas","Minas Gerais","-21.7882","-46.5625"
"348","Jardim Botânico da Fundação Zoobotânica do Rio Grande do Sul","Porto Alegre","Rio Grande do Sul","-30.0554","-51.1820"
"349","Jardim Botanico Floras","Porto Seguro","Bahia","16.2531","-7.212181"
"350","Jardim Botanico do Recife","Recife","","-8.07672722","-34.961828"
"351","Horto Botânico do Museu Nacional da UFRJ","Rio de Janeiro","Rio de Janeiro","-22.9035","-43.2095"
"352","Jardim Botânico do Rio de Janeiro","Rio de Janeiro","Rio de Janeiro","-22.9665","-43.2291"
"353","Jardim Botânico de Salvador","Salvador","Bahia","-12.927066","-38.438598"
"354","Parque Zoobotanico Getulio Vargas","Salvador","","-12.9703","-38.5123"
"355","Santa Maria Federal University Botanic Gardens","Santa Maria","","-29.6914","-53.8007"
"356","Museu de Biologia Mello Leitao","Santa Tereza","","-19.8614","-40.6739"
"357","Jardim Botanico Municipal de Santos ""Chico Mendes""","Santos","São Paulo","-23.9380","-46.3732"
"358","Parque Zoobotânico Orquidario Municipal de Santos","Santos","São Paulo","-23.96586","-46.34996"
"359","Jardim Botânico de São Paulo","São Paulo","São Paulo","-24.1140","-46.6596"
"360","Jardim Botânico da Universidade Federal Rural","Seropédica","Rio de Janeiro","-22.7413","-43.6884"
"361","Flecheiras Jardins","Trairi","Ceará","-3.219842","-39.279664"
"362","Universiti Brunei Darussalam","","","4.975905","114.893908"
"363","Prirodonaucen complex","Blagoevgrad","","42.0202","23.0989"
"364","Botanical Garden 'V. Kolarov' Higher Agricultural Institute","Plovdiv","","42.1438","24.7495"
"365","The Institute of Introduction and Plant Resources ""K.Malkov""","Sadovo","","42.1333","24.9396"
"366","Botanical Garden Balcik","Sofia","","42.7105","23.3238"
"367","Hortus Botanicus Academia Scientiarum Bulgaricae","SOFIA","","42.7105","23.3238"
"368","Hortus Botanicus of the Faculty of Pharmacy","Sofia","","42.7105","23.3238"
"369","Hortus Botanicus of the Institute Silvotechnici Superioris","Sofia","","42.7105","23.3238"
"370","Scientific Mountain Station","Sofia","","42.7105","23.3238"
"371","University Botanic Gardens","Sofia, Varna, Balchik","","42.7105","23.3238"
"372","Botanical Garden Druzba","Varna","","43.2059","27.9067"
"373","Centre National de la Recherche Scientifique et Technologique","Ouagadougou","","12.3569","-1.5351"
"374","Centre National des Semences Forestieres","Ougadougou","","12.3569","-1.5351"
"375","Direction Generale des Eaux et Forets","Ougadougou","","12.3569","-1.5351"
"376","Jardin Botanique de l'Institut des Siences Agronomique du Burundi (ISABU)","Bujumbura","","-3.3800","29.3574"
"377","Jardin Botanique de l'Universite du Burundi","Bujumbura","","-3.3800","29.3574"
"378","Bafut Botanic Garden","Bafut","","6.0845","10.1301"
"379","Limbe Botanic Garden","Limbe","Fako Division, South West Province","4.0134","9.2120"
"380","Yaounde Botanic Garden","Yaounde","","3.8612","11.5216"
"381","Annapolis Royal Historic Gardens","Annapolis Royal","Nova Scotia","44.74146","-65.5136"
"382","Barrie Arboretum at Sunnidale Park","Barrie","Ontario","44.39706","-79.70844"
"383","J. A. Carol Arboretum","Brampton","Ontario","43.68597","-79.7505"
"384","Cedar Valley Botanical Gardens","Brighton","Ontario","44.03323","-77.73306"
"385","Crop Diversification Centre South","Brooks","Alberta","50.55189","-111.85208"
"386","Golden Prairie Arboretum and CDCS Grounds","Brooks","Alberta","50.55189","-111.85208"
"387","Royal Botanical Gardens, Ontario","Burlington","Ontario","43.29096","-79.87519"
"388","Simon Fraser University Arboretum","Burnaby","British Columbia","49.27972","-122.92179"
"389","Plant Paradise Country Gardens","Caledon","Ontario","43.912168","-79.830877"
"390","Calgary Zoo, Botanical Garden & Prehistoric Park","Calgary","Alberta","51.045123","-114.029675"
"391","Central Memorial Park","Calgary","Alberta","51.04103","-114.06851"
"392","Reader Rock Garden","Calgary","Alberta","51.03049","-114.05868"
"393","Mackenzie King Estate, The","Chelsea","Quebec","45.50628","-75.81208"
"394","Riverview Horticultural Centre Society, The","Coquitlam","British Columbia","49.248983","-122.806377"
"395","Innisfree Farm  and Botanic Garden","Courtenay","British Columbia","49.6458","124.9464"
"396","Larkwhistle Garden","Dyers Bay","Ontario","45.18187","-81.36624"
"397","McCalla Orchard & Arboretum","Edmonton","Alberta","53.64353","-113.364616"
"398","Muttart Conservatory","Edmonton","Alberta","53.53536","-113.47901"
"399","New Brunswick Botanical Garden","Edmundston","New Brunswick","47.43952","-68.39221"
"400","Fredericton Botanic Garden","Fredericton","New Brunswick","45.95052","-66.67665"
"401","National Tree Seed Centre","Fredericton","New Brunswick","45.93302","-66.6567"
"402","Odell Park and Arboretum","Fredericton","New Brunswick","45.95698","-66.66486"
"403","Les Jardins de Métis / Reford Gardens","Grand-Métis","Quebec","48.62814","-68.12294"
"404","Rutherford Conservatory and Gardens","Guelph","Ontario","43.52954","-80.226033"
"405","University of Guelph Arboretum","Guelph","Ontario","43.53978","-80.21522"
"406","Halifax Public Gardens","Halifax","Nova Scotia","44.642384","-63.580116"
"407","McMaster Biology Department Greenhouse","Hamilton","Ontario","43.260690","-79.919182"
"408","Boreal Botanic Garden","High Level","Alberta","58.510372","-117.1329048"
"409","Agroforestry Development Shelterbelt Centre","Indian Head","Saskatchewan","50.53343","-103.6698759"
"410","Columbia Valley Botanical Gardens","Invermere","British Columbia","50.49813","-116.0241"
"411","Plum Grove Arboretum","Kakabeka Falls","Ontario","48.4020068","-89.616068"
"412","Eastern Ontario Model Forest","Kemptville","Ontario","45.00636","-75.6379"
"413","Parc Marie-Victorin","Kingsey Falls","Quebec","45.85405","-72.07497"
"414","Lemoine Point Conservation Area","Kingston","Ontario","44.226045","-76.612787"
"415","Crown Zellerbach Arboretum and Museum","Ladysmith","British Columbia","48.9904834","-123.8210343"
"416","Nikka Yuko Centennial Garden","Lethbridge","Alberta","49.68768","-112.80434"
"417","City of London Greenhouse and Civic Garden Complex","London","Ontario","42.96224","-81.29599"
"418","Sherwood Fox Arboretum","London","Ontario","43.00827","-81.27203"
"419","The Fanshawe College Botanical Gardens","London","Ontario","43.01321","-81.1995"
"420","Cowichan Lake Research Station Arboretum","Mesachie Lake","British Columbia","48.82491","-124.13298"
"421","Arboretum of the University of Toronto at Mississauga","Mississauga","Ontario","43.5891348","-79.6440885"
"422","Riverwood Conservancy, The","Mississauga","Ontario","43.564089","-79.669963"
"423","Biodôme de Montréal - Botanical Garden","Montreal","Quebec","45.55956","-73.54976"
"424","Montreal Botanical Garden / Jardin botanique de Montréal","Montreal","Quebec","45.55968","-73.56383"
"425","Musée du Château Ramezay","Montreal","Quebec","45.508843","-73.553414"
"426","Morden Arboretum Research Station","Morden","Manitoba","49.184","-98.09163"
"427","Niagara Parks Botanical Gardens and School of Horticulture, The","Niagara Falls","Ontario","43.13693","-79.05391"
"428","Niagara College Arboretum and Greenhouse","Niagara-on-the-Lake","Ontario","43.153244","-79.165976"
"429","Park and Tilford Gardens, The","North Vancouver","British Columbia","49.30951","-123.04202"
"430","Appleby College Campus","Oakville","Ontario","43.42647","-79.68549"
"431","Olds College Botanic Garden","Olds","Alberta","51.79194","-114.09381"
"432","Oshawa Valley Botanical Gardens","Oshawa","Ontario","43.900171","-78.870467"
"433","Parkwood National Historic Site","Oshawa","Ontario","43.90489","-78.8669"
"434","Dominion Arboretum and Central Experimental Farm","Ottawa","Ontario","45.39096","-75.70392"
"435","Belle Terre Botanic Garden and Arboretum","Otter Lake","Quebec","45.82342","-76.43082"
"436","University of Alberta Botanic Garden","Parkland County","Alberta","53.40844","-113.75736"
"437","Parksville Community Park Arboretum and Gardens","Parksville","British Columbia",NA,NA
"438","Island Park Arboretum","Portage La Prairie","Manitoba","49.96376","-98.2896"
"439","Milner Gardens and Woodland","Qualicum Beach","British Columbia","49.35283","-124.41284"
"440","Jardin Pedagogique - Universite Laval","Quebec","Quebec","46.777409","-71.275904"
"441","Joan of Arc Garden","Quebec","Quebec","46.80192","-71.22066"
"442","Montmorency Forest","Québec","Québec","46.780479","-71.279533"
"443","Roger-Van den Hende Botanic Garden","Quebec","Quebec","46.77628","-71.28113"
"444","Government House Edwardian Gardens","Regina","Saskatchewan","50.4549","-104.64644"
"445","Regina Plain Native Plant Nursery","Regina","Saskatchewan","50.42436","-104.56515"
"446","J. J. Neilson Arboretum","Ridgetown","Ontario","42.44726","-81.87561"
"447","Frank Skinner Arboretum","ROBLIN","Manitoba","51.03776","-101.33262"
"448","Minter Gardens","Rosedale","British Columbia","49.183712","-121.768724"
"449","Lilac Museum, The","Saint-Georges","Quebec","46.098223","-70.651638"
"450","Jardin Daniel A. Séguin","Saint-Hyacinthe","Quebec","45.61938","-72.96359"
"451","Domaine Joly-De Lotbinière","Sainte-Croix","Quebec","46.669539","-71.85051"
"452","George Pegg Botanic Garden","Sangudo","Alberta","53.80817","-114.52112"
"453","Rosebud Gardens","Sarnia","Ontario","42.9848313","-82.3605112"
"454","Mendel Gallery and Conservatory Corporation","Saskatoon","Saskatchewan","52.134858","-106.649368"
"455","Patterson Garden Arboretum","Saskatoon","Saskatchewan","52.12856","-106.62153"
"456","Plant Gene Resources of Canada","Saskatoon","Saskatchewan","52.13396","-106.63505"
"457","University of Saskatchewan Fruit Program","Saskatoon","Saskatchewan","52.13317","-106.6314"
"458","Ontario Forest Research Institute Arboretum","Sault Ste Marie","Ontario","46.504465","-84.303329"
"459","Great Lakes Forestry Centre Arboretum","Sault Ste. Marie","Ontario","46.50447","-84.30333"
"460","Sunshine Coast Botanical Garden","Sechelt","British Columbia","49.486583","-123.802181"
"461","Musée de la Nature et des Sciences","Sherbrooke","Quebec","45.403331","-71.895425"
"462","La Seigneurie de l’île d’Orléans","St-François","Quebec","47.00313","-70.8946"
"463","Kingsbrae Garden","St. Andrews","New Brunswick","45.08014","-67.047335"
"464","Walker Botanic Garden","St. Catharines","Ontario","43.14977","-79.24702"
"465","Memorial University Botanical Garden","St. John‘s","Newfoundland","47.57155","-52.75896"
"466","Morgan Arboretum","Ste-Anne-de-Bellevue","Quebec","45.42885","-73.95207"
"467","Brickman Botanical Country Garden","Stratford","Ontario","43.46502","-81.04424"
"468","Laurentian University Arboretum","Sudbury","Ontario","46.46985","-80.96935"
"469","Summerland Ornamental Gardens","Summerland","British Columbia","49.56639","-119.63603"
"470","Centennial Botanical Conservatory","Thunder Bay","Ontario","48.390927","-89.26043"
"471","Lakehead University Arboretum","Thunder Bay","Ontario","48.42345","-89.26171"
"472","Soroptimist International Friendship Gardens","Thunder Bay","Ontario","48.384977","-89.26489"
"473","Tofino Botanical Gardens","Tofino","British Columbia","49.13326","-125.89302"
"474","Allan Gardens","Toronto","Ontario","43.66203","-79.37401"
"475","Centennial Park Conservatory","Toronto","Ontario","43.65667","-79.59125"
"476","Humber Arboretum","Toronto","Ontario","43.72528","-79.6088"
"477","Mount Pleasant Cemetery","Toronto","Ontario","43.695837","-79.385251"
"478","Toronto Botanical Garden","Toronto","Ontario","43.734385","-79.358154"
"479","Toronto Zoo","Toronto","Ontario","43.82046","-79.18001"
"480","University of Toronto Growth Facilities","Toronto","Ontario","43.661398","-79.399857"
"481","Trochu Arboretum & Gardens","Trochu","Alberta","51.83097","-113.22878"
"482","The Maritime Aboriginal Peoples Council","Truro Heights","Nova Scotia","45.3600263","-63.3229887"
"483","Dr. Sun Yat-Sen Classical Chinese Garden","Vancouver","British Columbia","49.27979","-123.103888"
"484","Queen Elizabeth Park","Vancouver","British Columbia","49.24261","-123.11014"
"485","University of British Columbia Botanical Garden","Vancouver","British Columbia","49.25794","-123.2553"
"486","VanDusen Botanical Garden","Vancouver","British Columbia","49.23913","-123.13188"
"487","Abkhazi Garden","Victoria","British Columbia","48.415687","-123.32619"
"488","Butchart Gardens, The","Victoria","British Columbia","48.56509","-123.46908"
"489","Hatley Park National Historic Site","Victoria","British Columbia","48.439643","-123.477595"
"490","Native Plant Garden - Royal British Columbia Museum","Victoria","British Columbia","48.420173","-123.367357"
"491","Royal Roads University Botanical Gardens","Victoria","British Columbia","48.439643","-123.477595"
"492","The Gardens at HCP","Victoria","British Columbia","48.502081","-123.416774"
"493","University of Waterloo Botanical Garden and Arboretum","Waterloo","Ontario","43.47147","-80.54419"
"494","University of Waterloo Greenhouse","Waterloo","Ontario","43.47147","-80.54419"
"495","Whistling Gardens,<U+200E> Ltd.","Wilsonville","Ontario","42.99887","-80.29718"
"496","City of Windsor Parks and Gardens","Windsor","Ontario","42.292447","-83.017703"
"497","Fogolar Furlan Gardens","Windsor","Ontario","42.28471","-82.98847"
"498","Assiniboine Park Gardens and Conservatory, The","Winnipeg","Manitoba","49.8716","-97.23376"
"499","Living Prairie Museum","Winnipeg","Manitoba","49.890494","-97.271477"
"500","University of Manitoba Arboretum","Winnipeg","Manitoba","49.80752","-97.134188"
"501","Harriet Irving Botanical Gardens","Wolfville","Nova Scotia","45.08625","-64.36806"
"502","Jardim Botanico Nacional `L. Grandvaux Barbosa`","Praia","","14.9195","-23.5153"
"503","Queen Elizabeth II Botanic Park","Grand Cayman","","19.3321","-81.2620"
"504","Park and Botanic Garden Coronel","Concepcion","","-36.8446753","-73.006042"
"505","Parque Botanico Hualpen","Concepcion","","-36.8148","-73.0292"
"506","Parque Etnobotánico Omora","Isla Navarino","XII Regione Magallanes","-34.1563","-70.7541"
"507","Jardin Botanico ""Carl Skottsberg""","Punta Arenas","","-53.1479","-70.9303"
"508","Andean Botanic Garden Project","Santiago","","-33.4253","-70.5664"
"509","Arboretum Antumapu","Santiago","","-33.4253","-70.5664"
"510","Arboretum Frutillar","Santiago","","-33.4253","-70.5664"
"511","Departamento de Silvicultura,  Arboretum Rinconada","Santiago","","-33.4253","-70.5664"
"512","Jardin Botanico Chagual","Santiago","","-33.4068","-70.5872"
"513","Botanic Garden of Talca University","Talca","","-35.4227","-71.6565"
"514","Arboretum (Institute of Silviculture, Forestry Faculty)","Valdivia","","-33.5176","-71.6068"
"515","Jardin Botanico (Instituto de Botanica)","Valdivia","","-40.5545","-73.7141"
"516","Banco Base de Semillas - Instituto de Investigaciones Agropecuarias - INIA","Vicuna Region de Coquimbo","","-30.0318806","-70.7168548"
"517","Fundacion Jardín Botánico Nacional Viña del Mar","Vina Del Mar","Región de Valparaiso","-33.0253","-71.5146"
"518","Shangri-la Alpine Botanic Garden (SABG)","","Yunnan Province","46.6138","124.8791"
"519","Shing Mun Arboretum (Hong Kong)","","Hong Kong SAR","22.3964","114.1094"
"520","Xinglong Tropical Botanical Garden","","Hainan Province","18.733023","110.198031"
"521","Baoji Botanical Garden (Shaanxi)","Baoji","Shaanxi","34.3694","107.1375"
"522","Baotou Horticulture & Tree Gardening Research Institute (Inner Mongolia)","Baotou","Inner Mongolia","40.6611","109.8708"
"523","Beijing Blue Cloud Information Technology Co., Ltd","Beijing","","40.0238144","116.2219654"
"524","Beijing Forestry University Botanic Garden","Beijing","Beijing","39.9055","116.3958"
"525","Beijing Medical University Botanic Garden","Beijing","Beijing","39.9055","116.3958"
"526","Beijing Medicinal Garden","Beijing","","39.9055","116.3958"
"527","Baili Azalea Nature Reserve of Guizhou Province","Bijie","Guizhou","27.179240","105.937400"
"528","Changchun Forest Botanic Garden, Jilin","Changchun","Jilin","43.8861","125.3208"
"529","Central South University of Forestry and Technology","Changsha","Hunan","27.5416","113.1625"
"530","Hunan Forest Botanical Garden","Changsha","Hunan","28.2083","113.0083"
"531","Chengdu Arboretum (Sichuan)","Chengdu","Sichuan","30.6555","104.0625"
"532","Chengdu Botanical Garden (Sichuan)","Chengdu","Sichuan","30.6555","104.0625"
"533","Emeishan Botanical Garden","Chengdu","Sichuan","29.5920606","103.3771263"
"534","West China Subalpine Botanical Garden (Sichuan)","Chengdu","Sichuan","30.6610","104.0817"
"535","Chongqing Medicinal Plants Botanic Garden","Chongqing","","29.15789","107.09927"
"536","Jinyunshan Botanical Garden (Chongqing)","Chongqing","Chongqing","29.5527","106.5458"
"537","Nanshan Botanical Garden","Chongqing","Chongqing","29.55525","106.63111"
"538","Chongqing Ornamental Plant Garden","Chongqing, Jiangbei County","Sichuan","29.5527","106.5458"
"539","Beijing Teaching Botanical Garden","Chongwen","Beijing","39.9055","116.3958"
"540","Seac Pai Van Park, Macao","Coloane","Macau","22.1913","113.5515"
"541","Botanical Garden of Dalian","Dalian","Liaoning","38.9194","121.6416"
"542","Hainan Botanical Garden of Tropical Economic Plants","Danxian","Hainan","31.1944","107.5083"
"543","Chinese Academy of Tropical Agriculture Sciences (Hainan)","Danzhou","Hainan","36.0666","110.1000"
"544","Dengkou Psammophyte Botanical Garden  (Inner Mongolia)","Dengkou","Inner Mongolia","40.3000","106.9833"
"545","Dezhou Botanical Garden (Shangdong)","Dezhou","Shandong","37.4472","116.3041"
"546","Weixi Snow Hilly Botanical Garden (Yunnan)","Diqing","Yunnan","46.6138","124.8791"
"547","Dongguan Institute of Forestry Science","Dongguan City","Guangdong Province","23.0520586","113.7769446"
"548","Dongguan Botanic Garden","Dougguan City","Guangdong Province","22.967063","113.749963"
"549","Emei Mountain Rare Botanical Garden","Emei Mountain, Leshan","Sichuan Province","29.5921","103.37937"
"550","Dagangshan Arboretum (Jiangxi)","Fenyi","Jiangxi","27.8056","114.6679"
"551","Research Institute of Subtropical Forestry (Zhejiang)","Fuyang","Zhejiang","32.8944","115.8166"
"552","Fuzhou Arboretum","Fuzhou","Fujian","26.0750","119.3041"
"553","Fuzhou Botanical Garden","Fuzhou","Fujian","26.0750","119.3041"
"554","Laizhou Rare and Endangered Species Arboretum (Xiamen)","Fuzhou","Fujian","26.0750","119.3041"
"555","Ocean Flower Island Botanical Garden","Guangzhou","Guangdong","23.1284947","113.3405598"
"556","South China Agricultural University Arboretum","Guangzhou","Guangdong","23.1333","113.3208"
"557","South China Botanical Garden, CAS","Guangzhou","Guangdong","23.1333","113.3208"
"558","Guilin Botanical Garden","Guilin","Guangxi","25.2805","110.2833"
"559","Arboretum of Guizhou Institute of Forestry Science","Guiyang","Guizhou","26.5666","106.7083"
"560","Guiyang Medicinal Botanical Garden","Guiyang","Guizhou","26.5666","106.7083"
"561","Guizhou Botanical Garden","Guiyang","Guizhou","26.5666","106.7083"
"562","Botanic Garden of Beijing University","Haidian","Beijing","39.9833","116.3000"
"563","Institute of Medicinal Plant Development (Beijing)","Haidian","Beijing","39.9833","116.3000"
"564","The Botanical Garden (Chinese Academy of Forestry, Beijing)","Haidian","Beijing","39.9833","116.3000"
"565","Zhongguancun Botanical Garden (Beijing)","Haidian","Beijing","39.9833","116.3000"
"566","Botanical Garden of the Zhejiang Agricultural and Forestry University","Hangzhou","Zhejiang","30.2563636","119.7268503"
"567","Hangzhou Medicinal Herb Garden (Zhejiang)","Hangzhou","Zhejiang","30.2722","120.1708"
"568","Zhejiang Bamboo Botanical Garden","Hangzhou","Zhejiang","30.2722","120.1708"
"569","Hangzhou Botanical Garden","Hangzhou City","Zhejiang Province","30.2722","120.1708"
"570","Hangzhou Tianjing Aquatic Plant Garden","Hangzhou City","Zhejiang Province","30.2157127","120.2584076"
"571","Zhejiang Forestry Academy","Hangzhou City","Zhejiang Province","30.2175406","120.0266603"
"572","Heilongjiang Forest Botanical Garden","Harbin","Heilongjiang","45.7611","126.6500"
"573","Botanical Garden of the Anhui Institute of Biology","Hefei","Anhui","31.8666","117.2916"
"574","Dashushan Botanical Garden","Hefei","Anhui","31.8666","117.2916"
"575","Hefei Botanical Garden","Hefei","Anhui","31.8666","117.2916"
"576","Forest Industry Bureau of Heilongjiang Province","Heilongjiang","Heilongjiang","45.7414","126.6433"
"577","Hunan Nanyue Arboretum","Hengyang","Hunan","26.8944","112.6083"
"578","Hohhot Arboretum","Hohhot","Inner Mongolia Autonomous Region","40.8055","111.6625"
"579","Hohhot Botanical Garden","Hohhot","Inner Mongolia Autonomous Region","40.8055","111.6625"
"580","Hohhot Landscape Research Institute Botanical Garden","Hohhot","Inner Mongolia Autonomous Region","40.81223","111.64525"
"581","Hong Kong Zoological and Botanic Gardens","Hong Kong","","22.3813","114.1686"
"582","Kadoorie Farm and Botanic Garden","Hong Kong","Hong Kong SAR","22.3813","114.137"
"583","Shing Mun Arboretum, AFCD","Hong Kong","Hong Kong SAR","22.3813","114.1686"
"584","Hong Kong Zoological and Botanical Gardens","Hong Kong Island","Hong Kong",NA,NA
"585","Ocean Park Corporation (Hong Kong)","Hong Kong Island","Hong Kong","22.3813","114.1686"
"586","Huaihua Botanical Garden of Hunan Province","Huaihua City","Hunan Province","27.5972992","110.0116444"
"587","Huangshan Arboretum","Huangshan","Anhui","30.1197","118.1931"
"588","Hubei University of Nationalities","Hubei","","30.294519","108.3820045"
"589","Golden Bay Botanical Garden","Huimi","Guangdong","37.5413","117.7679"
"590","Hunjiang Arboretum (Jilin)","Hunjiang","Jilin","41.9303","126.4216"
"591","Jinan Quancheng Park","Jinan","Shandong","36.6583","117.0166"
"592","Jingdong Subtropical Botanical Garden","Jingdong","Yunnan","24.446","100.833"
"593","Xishuangbanna Tropical Flowers Garden (Yunnan)","Jinghong","Yunnan","22.2083","100.9375"
"594","Xishuangbanna Tropical Medicinal Garden (Yunnan)","Jinghong","Yunnan","22.2083","100.9375"
"595","Kaiyuan Tropical Garden (Yunnan)","Kaiyuan","Yunnan","23.7155","103.2437"
"596","Hong Kong Herbarium","Kowloon","Hong Kong","22.331773","114.160333"
"597","Germplasm Bank of Wild Species","Kunming","Yunnan","25.0166","102.6833"
"598","Kunming Botanical Garden","Kunming","Yunnan","25.0166","102.6833"
"599","Kunming Horticultural Landscape Botanical Garden (Yunnan)","Kunming","Yunnan","25.0472","102.7000"
"600","Southwest Forestry University","Kunming","Yunnan","25.0605567","102.7497721"
"601","Lanzhou Arboretum (Gansu)","Lanzhou","Gansu","36.0583","103.8333"
"602","Arboretum of Hainan Tropical Forestry Institute","Ledong","Hainan","20.0317","110.3465"
"603","Zhejiang Ecological Botanical Garden","Linan","Zhejiang","30.235334","119.728727"
"604","Dongfeng Forest Farm (Guizhou)","Liping","Guizhou","26.2310","109.1253"
"605","Jiulongshan National Nature Reserve Management Bureau, Zhejiang Province","Lishui City","Zhejiang Province","28.452922","119.8909981"
"606","Luoyang Botanical Garden (Henan)","Luoyang","Henan","34.6555","112.4000"
"607","Luoyang National Paeonia Garden","Luoyang","Henan Province","34.71078","112.44206"
"608","Lushan Botanical Garden, Jiangxi Province and Chinese Academy of Sciences","Lushan","Jiangxi","29.5833","115.9833"
"609","Xishuangbanna Tropical Botanical Garden, CAS","Mengla","Yunnan","21.927321","101.253862"
"610","Arboretum of Jiangxi Institute of Forestry Science","Nanchang","Jiangxi","28.6777","115.8958"
"611","Sichuan Medicinal Botanical Garden","Nanchuan","Sichuan","29.1670","107.0954"
"612","Arboretum of Nanjing Forestry University","Nanjing","Jiangsu","32.0750","118.7958"
"613","Nanjing Botanical Garden Mem. Sun Yat-sen","Nanjing","Jiangsu","32.05135","118.83344"
"614","Nanjing Botanical Garden of Medicinal Plants","Nanjing","Jiangsu","32.0750","118.7958"
"615","Arboretum of Guangxi Institute of Forestry","Nanning","Guangxi","22.8055","108.3166"
"616","Guangxi Botanical Garden of Medicinal Plants","Nanning","Guangxi","22.8055","108.3166"
"617","Nanning Arboretum","Nanning","Guangxi","22.8055","108.3166"
"618","Ningbo Botanical Garden","Ningbo","Zhejiang Province","29.8697063","121.4318759"
"619","Guangxi Karst Arboretum","Pingxiang","Guangxi","27.6222","113.8500"
"620","Daqingshan Lime Stone Arboretum","Pingyang","Guangxi","46.6014","123.5329"
"621","Xiashi Arboretum","Pingyang","Guangxi","46.6014","123.5329"
"622","Qingdao Botanical Garden (Shangdong)","Qingdao","Shandong","36.0833","120.3541"
"623","Arboretum Hainan Forestry Institute","Qiongshan","Hainan","19.9993","110.3505"
"624","Rudong Botanic Garden of Salt Tolerant Plants (Jiangsu)","Rudong","Jiangsu","21.5986","111.4125"
"625","Sanya Academy of Forestry","Sanya City","Hainan province","18.3093899","109.4447465"
"626","Taishan Botanic Garden","Shandong Province","","36.2123","117.128993"
"627","Medicinal Botanic Garden, Second Military Medical University (Shanghai)","Shanghai","Shanghai","31.2222","121.4750"
"628","Shanghai Botanical Garden","Shanghai","Shanghai","31.2000","121.4333"
"629","Gannan Arboretum of Jiangxi","Shangyou","Jiangxi","36.4491","117.5355"
"630","Institute of Applied Ecology, Shenyang Arboretum","Shenyang","Liaoning","41.8055","123.4333"
"631","Shenyang Botanical Garden (Liaoning)","Shenyang","Liaoning","41.8055","123.4333"
"632","Shenyang College of Pharmacy Medicinal Plant Garden (Liaoning)","Shenyang","Liaoning","41.8055","123.4333"
"633","Shenyang Municipal Arboretum (Liaoning)","Shenyang","Liaoning","41.8055","123.4333"
"634","Botanical Garden, Longgang","Shenzhen","Guangdong","22.7789","114.3048"
"635","Fairy Lake Botanical Garden, Shenzhen & Chinese Academy of Sciences","Shenzhen","Guangdong","22.57","114.01"
"636","Shihezi Botanical Garden (Xinjiang)","Shihezi","Xinjiang","44.2998","86.0379"
"637","Shijiazhuang Botanical Garden","Shijiazhuang","Hebei","38.0472","114.4750"
"638","Shanghai Chenshan Botanical Garden","Songjiang District, Shanghai","Shanghai","31.07474","121.1797"
"639","Arboretum of Shandong College of Forestry (Shangdong)","Taian","Shandong","36.1916","117.1291"
"640","Taiyuan Botanical Garden","Taiyun","Shanxi Province","37.7153348","112.4689126"
"641","Maijishan Arboretum (Gansu)","Tianshui","Gansu","34.5861","105.7000"
"642","Xiaolongshan Arboretum (Gansu)","Tianshui","Gansu","34.5861","105.7000"
"643","Arboretum of Hainan Institute of Forestry Science","Tunchang","Hainan","20.0317","110.3465"
"644","Turpan Desert Botanic Garden","Turpan","Xinjiang","43.0055","89.2083"
"645","Urumqi Botanical Garden","Urumqi","Xinjiang","43.7826","87.5865"
"646","Xinglong Tropical Flowers Garden (Hainan)","Wanning","Hainan","51.7673","125.8981"
"647","Xinglong Tropical Garden (Hainan)","Wanning","Hainan","18.8244","110.4002"
"648","Three Gorges Botanical Garden (Yunnan)","Wanzhou","Yunnan","29.9489","106.3476"
"649","Wenzhou Botanical Garden","Wenzhou","Zhejiang","28.0250","120.6375"
"650","Wenzhou Botanical Garden (Zhejiang)","Wenzhou","Zhejiang","28.0250","120.6375"
"651","Yueqing Yandangshan Botanic Garden (Yandangshan National Forest Park)","Wenzhou City","Zhejiang Province","28.3673241","121.1008697"
"652","Arboretum of Wuhan University","Wuchang","Hubei","44.9158","127.1535"
"653","Wuhan Botanic Garden","Wuchang","Hubei","44.9158","127.1535"
"654","Donghu Lake Moshan Landscape Garden","Wuhan","Hubei","30.5777","114.2791"
"655","Wutaishan Arboretum (Shanxi)","Wutai","Shanxi","38.7144","113.2469"
"656","Minqin Garden of Desert Plants","Wuwei","Gansu","36.0680","103.7500"
"657","Taihu Botanic Garden, Wuxi (Jiangsu)","Wuxi","Jiangsu","31.5611","120.3583"
"658","Qinling National Botanical Garden","Xi'an","Shaanxi","34.05312","108.39242"
"659","Xi'an Botanical Garden","Xi'an","Shaanxi","34.2638","108.9541"
"660","Fujian Subtropical Economic Plant Institute","Xiamen","Fujian","24.4777","118.1000"
"661","Xiamen Botanical Garden","Xiamen","Fujian","24.4777","118.1000"
"662","Xiamen Overseas Chinese Subtropical Plant Introduction Garden","Xiamen","Fujian","24.4777","118.1000"
"663","Beijing (northern) Botanical Garden","Xiangshan","Beijing","39.6333","118.1666"
"664","Beijing (southern) Botanical Garden - Living Plants","Xiangshan","Beijing","38.48","116.28"
"665","Beijing (southern) Botanical Garden - Tissue Culture","Xiangshan","Beijing","39.6333","118.1666"
"666","Xiaoxing Anling Botanical Garden (Helongjiang)","Xiaoxing Anling","Heilongjiang","49.1385","126.7602"
"667","Xiji Arboretum (Ningxia)","Xiji","Ningxia","35.9683","105.7173"
"668","Xining Botanical Garden (Qinghai)","Xining","Qinghai","36.6166","101.7750"
"669","Xiongyue Arboretum","Xiongyue","Liaoning","40.5033","122.5332"
"670","Yanan Arboretum (Shaanxi)","Yanan","Shaanxi","36.5916","109.4958"
"671","Yanchi Arid Land Shrub Garden (Ningxia)","Yanchi","Ningxia","37.7807","107.3972"
"672","Changbaishan Botanical Garden (Jilin)","Yanyan","Jilin","43.8582","126.4691"
"673","Yichun Arboretum (Helongjiang)","Yichun","Heilongjiang","47.7277","128.9041"
"674","Yinchuan Botanical Garden (Ningxia)","Yinchuan","Ningxia","38.4611","106.2791"
"675","Yingkou Botanical Garden (Liaoning)","Yingkou","Liaoning","40.6583","122.2208"
"676","Montane Arboretum, Heilongtan (Shaanxi)","Yulin","Shaanxi","38.2944","109.7500"
"677","Woyun Civilian-run Botanical Garden (Shaanxi)","Yulin","Shaanxi","38.2944","109.7500"
"678","Yulin Psammophyte Botanical Garden (Shaanxi)","Yulin","Shaanxi","38.2944","109.7500"
"679","Shenzhou Magnolia Garden and Breeding Center","Zhan Jiang, Tianhe District, Guangzhou","Guangdong Province","20.333981","110.172116"
"680","Jinan Botanical Garden","Zhangqiu City","Shandong","36.61498","117.45854"
"681","South Subtropical Botanical Garden","Zhanjiang","Guangdong","21.2317","110.3810"
"682","West Guangdong Tropical Botanic Garden","Zhanjiang","Guangdong","21.1972","110.4166"
"683","Dinghushan National Nature Reserve","Zhaoqing","Guangdong","23.0722","112.4750"
"684","Botanical Garden at Zhengzhou Yellow River Scenic Area (Henan)","Zhengzhou","Henan","34.7611","113.6625"
"685","Henan Agricultural University","Zhengzhou","Henan","34.7611","113.6625"
"686","Shabotou Botanical Garden (Ningxia)","Zhongwei","Ningxia","37.5144","105.1745"
"687","Zhejiang Zhoushan Island Arboretum","Zhoushan","Zhejiang","30.0194","122.1041"
"688","Zhoushan Botanical Garden (Zhejiang)","Zhoushan","Zhejiang","30.0194","122.1041"
"689","Zhoushan Academy of Forestry","Zhoushan City","","30.0203589","122.09787"
"690","ICECOL","Barranquilla","","10.9765","-74.8100"
"691","Campo Biologico Experimental-Laboratorio 125","Bogota","","4.6473","-74.0962"
"692","Jardín Botánico de Bogotá José Celestino Mutis","Bogotá D.C.","","4.6098","-74.0820"
"693","Jardín Botánico de Bogotá José Celestino Mutis - Seed Bank","Bogotá D.C.","","4.6098","-74.0820"
"694","Jardin Botanico Eloy Valenzuela","Bucaramanga","","7.1051","-73.1169"
"695","Jardin Botanico del Quindio","Calarca","Quindio","4.5298","-75.6461"
"696","Jardin Botanico de Cali","Cali","","3.4233","-76.5245"
"697","Jardin Botanico del Pacifico","Cali","","3.4233","-76.5245"
"698","Jardin Botanico y Reserva Natural El Refugio Torremolinos","Cali","","3.4233","-76.5245"
"699","Centro de Estudios Medicos Interculturales","Cota","Cundinamarca","4.8086029","-74.100391"
"700","Jardin Botanico ""El Cubarro""","Cubarral","","3.7691","-73.8386"
"701","Jardin Botanico ""Alejandro von Humboldt""","Ibague","","4.4364","-75.1916"
"702","Jardin Botanico Universidad de Caldas","Manizales","","5.0621","-75.4956"
"703","Jardin Botanico Alejandro Humboldt de Marsella, Risaralda","Marsella","","6.2666","-73.8833"
"704","Jardin Botanico ""Joaquin Antonio Uribe"" De Medellin","Medellin","",NA,NA
"705","Jardin Botanico de Medellín  ""Joaquin Antonio Uribe""","Medellin","Antioquia","6.2512","-75.5759"
"706","Jardin Botanico de Plantas Medicinales","Mocoa","Putumayo","1.1743","-76.6415"
"707","Jardin Botanico de Cordoba","Monteria","","8.7597","-75.8873"
"708","Jardin Botanico de Palmira","Palmira","","3.8414","-73.6237"
"709","Jardin Botanico de Santa Lucia","Pasto","","1.2119","-77.2704"
"710","Jardin Botanico Universidad Tecnologica de Pereira","Pereira","Risaralda","4.790444","-75.689083"
"711","Jardín Botánico de Popayán","Popayán","Cauca","2.391306","76.656917"
"712","Jardin Botanico del Vichada","Puerto Carreno","","6.1442","-67.4716"
"713","Jardin Botanico ""Leandro Agreda""","Putumayo","","0.4230","-75.5220"
"714","Jardín Botanico del Choco-jotaudo","Quibdó","Chocó","5.6956543","-76.6540477"
"715","Jardin Botanico de San Andres","San Andres","","9.5284","-74.8847"
"716","Fundación Jardín Etnobotánico Villa Ludovica","Santa Marta","Magdalena","11.2753","-74.1906"
"717","Jardín Botánico Quinta de San Pedro Alejandrino","Santa Marta","","11.228161","-74.177359"
"718","Jardin Botanico ""Juan Maria Cespedes""","Tulua","","4.0776","-76.2012"
"719","Jardín Botánico de Cartagena","Turbaco","Bolivar","10.354644","-75.429485"
"720","Jardin Botanico de Villavicencio","Villavicencio","","4.1573","-73.6374"
"721","Centre d'Etude sur les Resources Vegetables","","Brazzaville","-4.2368","15.2160"
"722","Jardin Ethnobotanique Kivu","Lwiro","South Kivu",NA,NA
"723","Jardín Etnobotánico Dominga","","San Luis","10.4735","-84.2589"
"724","Área de Conservación Guanacaste, National Parks Foundation","Barrio Los Ángeles","Liberia","10.6296254","-85.4566821"
"725","Green Mountain Cloud Forest Gardens","Cartago","","9.7605","-83.7845"
"726","Jardín Botánico Lankester","Cartago","Cartago","9.8396","-83.8885"
"727","Instituto Nacional de Biodiversidad","Heredia","","10.3772","-83.9509"
"728","Arboretum del Bosque Seco Tropical","Liberia","",NA,NA
"729","Flores y Follajes del Caribe S.A.","Limón","","10.1940205","-83.6761665"
"730","Osa Conservation","Puerto Jiménez","Golfito","8.4040194","-83.336552"
"731","Earth University","San Jose","","9.9402","-84.1001"
"732","Jardín Botánico Nacional Simón Bolívar","San José","","9.9386739","-84.074436"
"733","Jardín Botánico Nacional Simón Bolívar - seed bank","San José","","9.9386739","-84.074436"
"734","Arboretum Leslie R.Holdridge","San Pedro","","9.9303","-84.0522"
"735","The Robert & Catherine Wilson Botanical Garden","San Vito de Coto Brus","Puntarenas","8.785278","-82.958889"
"736","El Arca Verde de las Plantas S.A.","Santa Barbara de Heredia","","10.0382275","-84.168793"
"737","Hotel Bougainvillea's Botanical Garden","Santo Domingo de Heredia","","9.9804893","-84.0810387"
"738","Else Kientzler Botanical Garden","Sarchí Norte","","10.0912","-84.3504"
"739","CATIE - Centro Agromico","Turrialba","","9.9011","-83.6845"
"740","Garden of Adiopodoume","Abidjan","","5.3320","-4.0305"
"741","Botanical Garden ""Lokrum""","Dubrovnik","Croatia","42.6418","18.1064"
"742","School Botanic Garden 'Ostrog'","Kastel Luksic","Croatia","43.5524","16.3648"
"743","Velebit Botanic Garden","Krasno","Croatia","44.8228","15.0588"
"744","Biokovo Botanical Garden 'Kotisina'","Makarska","Croatia","43.3251","17.0343"
"745","Botanical Garden","Split","Croatia","43.5159","16.4466"
"746","Trsteno Arboretum","Trsteno","Croatia","42.6418","18.1064"
"747","Arboretum Opeka","Vinica","Croatia","46.3099","16.3339"
"748","Arboretum Lisicine","Vocin","Croatia","45.6204","17.5455"
"749","Botanical Garden of Medicinal Plants 'Fran Kusan'","Zagreb","Croatia","45.8150","15.9785"
"750","Botanical Garden of the Faculty of Science Zagreb","Zagreb","Hrvatska","45.8150","15.9785"
"751","Jardín Botánico de Villa Clara","54830 Santa Clara","Villa Clara","22.4136","-79.9656"
"752","Jardin Botanico ""Cupaynicu""","Bayamo","","20.3833","-76.6500"
"753","Jardin Botanico de Cienfuegos","Cienfuegos","","23.1367","-82.3514"
"754","Estacion Experimental de Plantas Medicinales ""Dr. Juan T. Roig""","Havana","","23.1333","-82.3666"
"755","Instituto de Investigaciones Fundamentales en Agricultura Tropical ""Alejandro de Humboldt"" (INIFAT)","Havana","","23.1333","-82.3666"
"756","Jardin Botanico Nacional de Cuba","Havana","","23.1333","-82.3666"
"757","Jardin Botanico de Holguin","Holguin","","20.8833","-76.2500"
"758","Jardin Botanico de Las Tunas","Las Tunas","","20.9657","-76.9502"
"759","Jardin Botanico de Matanzas","Matanzas","","23.0500","-81.5833"
"760","Soroa Orchid Garden","Pinar Del Rio","","22.5833","-83.6666"
"761","Jardin Botanico Sancti Spiritus","Sancti Spiritus","","22.0000","-79.2500"
"762","Jardin de Helechos","Santiago De Cuba","","20.0166","-75.8166"
"763","Department of Forests","","","35.1333956","33.3069293"
"764","Nature Conservation Unit- Seed Bank","Nicosia","","34.695772","33.016101"
"765","Agricultural Research Institute- Seed Bank","Platy","Aglantzia","35.140424","33.383217"
"766","Botanicka Zahrada Stredni zemedelske techn. skoly","Benešov","","49.4141","14.6577"
"767","Bila Lhota Arboretum","Bila Lhota","","49.7095","16.9749"
"768","Arboretum - Katedra Lesnicke Botaniky","Brno","","49.1910","16.6114"
"769","Botanical Gardens and Arboretum","Brno","","49.2121","16.6208"
"770","Brno University of Vetinary and Pharmaceutical Sciences Botanic Garden","Brno","","49.1910","16.6114"
"771","Masaryk University Faculty of Medicine Medicinal Herbs Centre","Brno","Czech republic","49.1910","16.6114"
"772","Masaryk University Faculty of Science Botanical Garden","Brno","Czech Republic","49.2041","16.5972"
"773","Medicinal Herbs Centre","Brno","Czech Republic",NA,NA
"774","Stredni Zemedelska Technicka Skola","Decin-libverda","","50.7817","14.2145"
"775","Charles University Pharmacy Faculty Botanic Garden","Hradec Kralove","","50.2094","15.8326"
"776","Arboretum Stredni lesnicke technicke skoly","Hranice","","49.5650","17.7422"
"777","Arboretum Kostelec, Czech Agricultural University of Prague","Kostelec","","49.0266","17.1530"
"778","Botanical Garden Liberec","Liberec","","50.7670","15.0561"
"779","Centre of the Region Haná for Biotechnological and Agricultural Research","Olomouc","","49.594840","17.259649"
"780","Flora Olomouc","Olomouc","","49.5955","17.2518"
"781","Palacký University Botanic Garden","Olomouc","Czech Republic","49.586191","17.249127"
"782","Palacký University Botanic Garden SEED BANK","Olomouc","Czech Republic","49.586191","17.249127"
"783","Vulhm - Arboretum Sofronka","Plzen","","49.7474","13.3776"
"784","Zoological and Botanical Garden of the Plzen Town (Zoologicka a Botanicka zahrada mesta Plzne)","Plzen","","49.7333","13.3833"
"785","Charles University Botanic Garden  (Botanicka zahrada University Karlovy)","Prague","","50.0878","14.4204"
"786","Prague Botanic Garden / Botanicka Zahrada Praha","Prague","Troja","50.1209","14.4208"
"787","Prague Zoo","Prague","","50.1209","14.4208"
"788","Institute of Tropical and Subtropical Agriculture, Agricultural University Prague","Prague-suchdol","","50.1331","14.3768"
"789","Dendrological garden of the Silva Tarouca Research Institute for Landscape and Ornamental Gardening","Pruhonice","","50.028","14.5509"
"790","Pruhonice Botanic Garden","Pruhonice","","49.9942349","14.5635478"
"791","Pruhonice Park","Pruhonice","","50.0009","14.5509"
"792","Arboretum Strední lesnické školy","Sluknov","","51.0033","14.4530"
"793","Arboretum Novy Dvur","Steborice","","49.9377","17.8089"
"794","Ing. B. Simerda","Sumperk","","49.9654","16.9700"
"795","The Botanical Garden of Teplice","Teplice","","50.6385","13.8424"
"796","Hortus Botanicus Trebon","Trebon","","49.0055806","14.7732347"
"797","Arboretum Zampach","Zampach","Czech Republic","50.0390","16.4319"
"798","Jardin Zoologique et Botanique d‘Eala","Eala Mbandaka","Equateur","0.0487","18.3109"
"799","Jardin Botanique de Kisantu","Inkisi-Kisantu","Bas-Congo Province","-5.1352","15.0723"
"800","Jardin Botanique de Kinshasa","Kinshasa","","-4.3258","15.3218"
"801","The American School of Kinshasa","Kinshasa","","-4.4217505","15.2586913"
"802","Botanisk Have","Aarhus","","56.1581","10.2120"
"803","The Forest Botanical Garden","Aarhus","","56.1581","10.2120"
"804","University of Aarhus Botanical Institute","Aarhus","","56.1581","10.2120"
"805","Forstbotanisk Have (Forest Botanic Garden)","Charlottenlund","","55.7486","12.5873"
"806","Botanical Garden, Natural History Museum of Denmark","Copenhagen K","","55.6833","12.5666"
"807","Horticultural Gardens (Faculty of Life Sciences), University of Copenhagen","Frederiksberg C","","55.6808","12.5428"
"808","The Greenland Arboretum","Greenland","","61.16026","-45.42689"
"809","Royal Veterinary and Agricultural University Arboretum","Hørsholm","","55.8666","12.5000"
"810","Guldborgsund Zoo & Botanical Garden","Nykoebing","","56.7916","8.8679"
"811","Arboretum Paludosum","Silkeborg","","56.1831","9.5517"
"812","Carib Territory Botanic Garden","","Carib Territory","15.4149","-61.3709"
"813","Roseau Botanic Gardens","Roseau","","15.2976","-61.3900"
"814","Fundación Progressio","Santo Domingo","","18.4842028","-69.945814"
"815","Jardin Botanico Nacional ""Dr. Rafael M. Moscoso""","Santo Domingo","","18.4790","-69.8900"
"816","Jardin Botanico Atocha-La Liria","Atocha-Ficoa","Tungurahua","-1.22829","-78.6227"
"817","Reserva Etnobotánica Cumandá","Baeza","Napo","-0.2294","-78.5242"
"818","Jardín Botánico El Padmi","Cantón Yantzaza","Provincia de Zamora Chinchipe","-3.72708","-78.6083"
"819","Jardín Botánico Piatua","Carlos Julio Arosemena Tola","Napo","-1.24306","-77.8897"
"820","Jardín Etnobotánico UNORCAC","Cotacachi","Imbabura","0.299913","-78.2764"
"821","Jardín Botánico Tropical Mutile","Esmeraldas","Esmeraldas","0.890724","-79.6211"
"822","Jardin Tropical de Esmeraldas","Esmeraldas","","0.9374","-79.6670"
"823","Jardin Botanico de Guayaquil","Guayaquil","Guayas","-2.07993","-79.8974"
"824","FInca Pastaza","La Palmera","Tungurahua",NA,NA
"825","Jardin Botanico ""Reinaldo Espinosa""","Loja","Loja","-4.0345","-79.7874"
"826","Jardín Botánico Huertos La Macarena","Matriz","Azuay","-2.76438","-78.717"
"827","Jardín Botánico de la Universidad Técnica de Manabí","Portoviejo","Manabí","-1.0380196","-80.4637058"
"828","Jardin Botanico Las Orquideas","Puyo","Pastaza","-1.494100","-78.0000"
"829","Parque Pedagogico Etnobotanico OMAERE","Puyo","Pastaza","-1.4864","-78.0082"
"830","Jardin Botanico de Quito","Quito","Pichincha","-0.2294","-78.5242"
"831","Reserva Rio Guaycuyacu","Quito","","-0.1848","-78.7296"
"832","Jardín Botánico Hacienda Verde","Quito, Puéllaro","Pichincha","0.0000","-78.23"
"833","Parque Histórico Guayaquil","Samborondón","Guayas","-2.14442","-79.8695"
"834","Jardín Botánico Milpe","San Miguel de los Bancos","Pichincha","0.028727","-78.8631"
"835","Jardín Botánico Jatun Sisa","Santa Clara","Pastaza","-1.23262","-77.983"
"836","Jardín Botánico Padre Julio Marrero","Santo Domingo","Santo Domingo de los Tsáchilas","-0.22426","-79.1858"
"837","Jardín Botánico Ishpingo","Tena","Napo","-1.066","-77.6283"
"838","Jardín Botánico Yachay","Urcuqui","Imbabura","0.421146","-78.186503"
"839","Botanic Garden Botany Department","Alexandria","","31.2135","29.9443"
"840","Sabahia Horticultural Research Station","Alexandria","","31.2135","29.9443"
"841","Aswan Botanic Garden","Aswan","","24.0818","32.9108"
"842","El Saff Botanic Garden","Cairo","","30.0571","31.2272"
"843","Mazhar Botanical Garden","Cairo","","30.042689","31.245618"
"844","Orman Botanic Garden","Cairo","","30.0571","31.2272"
"845","Zohria Trial Gardens","Cairo","","30.0571","31.2272"
"846","Botanica Palm Hills","Giza Governorate","","29.9990874","31.0240178"
"847","Qubba Botanic Garden","Qubba","","30.0872","31.2941"
"848","Asociación Jardin Botanico La Laguna","San Salvador","","13.7034","-89.2073"
"849","Jarvselja Arboretum","Meeksi","","58.2157","27.4375"
"850","Tallinn Botanic Garden","Tallinn","","59.4388","24.7544"
"851","Botanical Garden of Tartu University","Tartu","","58.3851","26.7228"
"852","Botanic Gardens KCTE","Addis Ababa","","9.0115","38.7593"
"853","Forestry Research Centre Arboretum","Addis Ababa","Addis Ababa Administration","9.021200","38.824099"
"854","Gullele Botanic Garden","Addis Ababa","","9.07271","38.71925"
"855","Phytochemical Project Botanical Garden","Addis Ababa","","9.0115","38.7593"
"856","Alemaya Botanic Garden","Alemaya","Harerge Region","9.6530","40.3459"
"857","Bahir Dar University Botanic Garden","Bahir Dar","","11.574076","37.397948"
"858","Debre Birhan University Medicinal Plant Garden","Debre Birhan","","9.656598","39.521388"
"859","Jimma Botanic Garden","Jimma","","7.683645","36.823382"
"860","Shashemene Botanic Garden","Shashemene","","7.193592","38.592610"
"861","Wondo Genet College Arboretum","Shashemene / Wondo Genet","","7.084209","38.617973"
"862","Savurua Botanical Gardens","Pacific Harbour","Serua","-18.1955","178.0713"
"863","Flora Tropica Gardens","Savusavu","Fiji Islands","-16.77","179.34"
"864","Suva Botanical Gardens","Suva","","-18.0876","178.3841"
"865","The Botanical Gardens of the Universtiy of the South Pacific","Suva","","-18.0876","178.3841"
"866","Arboretum Mustila","Elimäki","","60.7333","26.4833"
"867","Finnish Museum of Natural History / Helsinki University Botanic Garden","Helsinki","","60.1833","24.9500"
"868","Finnish Museum of Natural History / Helsinki University Botanic Garden SEED BANK","Helsinki","","60.1833","24.9500"
"869","Botanic Garden ""Botania""","Joensuu","","62.6000","29.7166"
"870","University of Jyväskylä Botanic Garden","Jyväskylä","","62.2403","25.7426"
"871","Botanical Gardens and Museum of Oulu University","Oulu","","65.0638","25.4638"
"872","International Forest Line Arboretum","Turku","","60.4514","22.2687"
"873","University of Turku - Botanic Garden","Turku","","60.4514","22.2687"
"874","La Bambouseraie ( Maurice Negre Parc Exotique de Prafrance )","Anduze","","44.0550","3.9851"
"875","Jardin Botanique de l'Université Angers","Angers","","47.481169","-0.559128"
"876","Institut National de Recherche pour l'Agriculture, l'Alimentation et l'Environnement","Antibes","","43.5654","7.1234"
"877","Arboretum des Grands-Murcins","Arcon","","46.0260","3.8931"
"878","Les Jardins de Valloires","ARGOULES","","50.3418","1.8352"
"879","Floralpina","Arras","","50.2928","2.7824"
"880","Conservatoire Botanique Pyreneen","Bagneres De Bigorr","","43.0677","0.1504"
"881","Conservatoire botanique national de Bailleul","Bailleul","","50.7533","2.7084"
"882","Jardin Botanique du Tourmalet","Bareges","","43.1828","-0.0275"
"883","Jardin Botanique de la Ville et de l'Universite de BESANCON","Besancon","","47.2412","6.0255"
"884","Jardin Botanique de Bordeaux","Bordeaux","","44.846483","-0.563403"
"885","Conservatoire National du Pelargonium","Bourges","","47.0828","2.3965"
"886","Conservatoire Botanique National du Brest","Brest","","48.4081","-4.4995"
"887","Jardin Botanique de la Ville de Caen","Caen","","49.1846","-0.3719"
"888","Arboretum du Chêne-Vert","Chabanais","Poitou-Charentes region","45.878228","0.736519"
"889","Jardin Botanique Chalon-sur-Saone ( Jardin Geobotanique )","Chalon-sur-saone","","46.7837","4.8498"
"890","Arboretum de la Vallee-aux-Loups","Chatenay-malabry","","48.7696","2.2604"
"891","Conservatoire Botanique National du Massif-Central","Chavaniac-Lafayette","","45.2114","3.5517"
"892","Jardin Botanique  Camifolia","Chemillé-Melay","","47.90","0.55"
"893","Jardin Botanique de la Ville de Clermont-Ferrand","Clermomt-ferrand","","45.7963","3.1078"
"894","Jardin Botanique des Olfacties","Coex","","46.6969","-1.7582"
"895","National Botanical Conservatory of Corsica","Corte","Corsica","42.586990","9.462069"
"896","National Botanical Conservatory of Corsica SEED BANK","Corte","Corsica",NA,NA
"897","Jardins de l' Abbaye de Daoulas","Daoulas","","48.36175","-4.26506"
"898","Jardin Botanique de l'Arquebuse","Dijon","","47.3320","5.0322"
"899","Conservatoire Botanique National Alpin de Gap-Charance","Gap-charance","","44.5644","6.0671"
"900","Arboretum du Poerop","Huelgoat","","48.3636","-3.7467"
"901","Conservatoire Botanique National de Porquerolles","Hyeres","","43.0013","6.2216"
"902","Roseraie du Val-de-Marne","L'Hay-Les-Roses","","48.7762605","2.3324063"
"903","Jardin Botanique Yves Rocher","La Gacilly","Morbihan","47.7656","-2.1310"
"904","Jardin Botanique de Vauville","La Hague","","49.6343178","-1.8475185"
"905","Jardin d'Oiseaux Tropicaux","La Londe-les-Maures","","43.1642","6.2423"
"906","Jardin Conservatoire des Plantes Tinctoriales","Lauris","Provence-Alpes-Côte d'Azur","43.745533","5.312536"
"907","Station Alpine du Lautaret","Lautaret","GRENOBLE Cedex 09","45.0333","6.4000"
"908","Les Jardins Suspendus","Le Havre","","49.50","0.09"
"909","Jardin Botanique de la Faculte des Sciences Pharmaceutiques, Universté de Lille 2","Lille","","50.6371","3.0630"
"910","Jardin des Plantes","Lille","","50.6198","3.0540"
"911","Jardin Botanique Alpin "" Daniella ""","Limoges","","45.8213","1.2510"
"912","Jardin Botanique de la Ville de Limoges","Limoges","","45.8213","1.2510"
"913","Les Jardins Traditionnels du Cap Corse","Luri","","42.8842","9.4014"
"914","Jardin Botanique Faculte de Medecine et Pharmacie","Lyon","","45.7672","4.8343"
"915","Jardin Botanique de la Ville de Lyon","Lyon Cedex 01","","45.7666","4.8500"
"916","Arboretum de Pezanin","Macon","","46.3146","4.8696"
"917","Jardin Botanique de l'Ecole Veterinaire d'Alfort","Maisons-alfort","","48.8013","2.4312"
"918","Jardins de Salagon","Mane","","43.9438","5.7885"
"919","Jardin Botanique de Marnay sur Seine","Marnay-sur-Seine","","48.513221","3.555726"
"920","Jardins Botanique E.-M.-Heckel","Marseille","","43.4802","5.4178"
"921","Jardin Botanique Montagnard","Mazet-saint-voy","","45.0428","4.2402"
"922","Sentier de Decouverte","Melle","","46.2207","-0.1455"
"923","Jardin Botanique Exotique "" Val Rahmeh ""","Menton-Garavan","France","43.7848","7.5209"
"924","Le Jardin desCausses","Millau","","44.0995","3.0812"
"925","Conservatoire National des Plantes medicinales, aromatiques et industrielles","Milly-la-foret","","48.4188","2.4770"
"926","Arboretum "" Les Sentiers des Arbres ""","Monthodon","","47.5961","0.8886"
"927","La petite Loiterie","Monthodon","","47.62511","0.8083"
"928","Jardin Botanique de la Ville de Metz","Montigny-les-metz","","49.0967","6.1547"
"929","Jardins des Plantes de l‘Université","Montpellier","","43.6166","3.8833"
"930","Parc Zoologique et Botanique de la Ville de Mulhouse","Mulhouse","","47.7494","7.3397"
"931","Arboretum d'Amance","Nancy","","48.6880","6.1734"
"932","Jardin des Plantes","Nantes","Cedex","47.3825","1.6275"
"933","Jardin botanique de la Presle","Nanteuil La Foret","","49.15247","3.92534"
"934","Jardin Botanique de la Ville de Nice","Nice","","43.7030","7.2137"
"935","Arboretum National des Barres ( et Fruticetum Vilmorinianum )","Nogent-sur-Vernisson","Loiret","47.8458","2.7416"
"936","Conservatoire Genetique des Arbres Forestiers USC ONF-INRA","Orleans","","47.82948","1.91578"
"937","Universite Paris-Sud - Parc Botanique de Launay","Orsay Cedex","","48.3606","-0.2720"
"938","Bibliotheque Centrale","Paris","","48.8453","2.3512"
"939","Conservatoire Botanique National du Bassin parisien","Paris","","48.8453","2.3512"
"940","Jardin Botanique de la Faculte de Pharmacie","Paris","","48.8495","2.3524"
"941","Jardin botanique de Paris","Paris","","48.8551","2.2577"
"942","Jardin botanique de Paris - Seed Bank","Paris","","48.8551","2.2577"
"943","Jardin des Plantes de Paris et Arboretum de Chevreloup","Paris","","48.8453","2.3512"
"944","National Museum ""d'Histoire Naturelle""- Seed Bank","Paris","","48.844335","2.356232"
"945","Natures et Paysages Le Jardin Carnivore","Peyrusse-Massas","","43.74048","0.56372"
"946","Jardin Botanique Universitaire De Poitiers","Poitiers","","46.55755","0.4091"
"947","Jardin de la Collection Annabelle","Rainans","","47.155883","5.477905"
"948","Jardin Botanique de l'Universite de Rennes","Rennes","","48.1117","-1.6802"
"949","Jardin Botanique de la Ville de RENNES ( Jardin Botanique ""Le Thabor"" )","Rennes","","48.1120","-1.6884"
"950","Conservatoire du Begonia","Rochefort","","45.9516","-0.9744"
"951","L'Arboretum de Chevreloup","Roquencourt","F-78150 LE CHESNAY","48.830278","2.112222"
"952","Jardin Botanique de la Ville de ROUEN","Rouen","","49.4335","1.0703"
"953","Arboretum Marcel Kroenlein","Roure","","44.0951","7.1180"
"954","Château Pérouse","Saint-Gilles","","43.7136307","4.4177513"
"955","Jardin Botanique des Pyrenees-Occidentales","Saint-jammes","","43.3579","-0.2510"
"956","Jardin Botanique Paul Jovet","Saint-Jean De Luz Cedex","","43.40327","-1.65009"
"957","Espace Pierres Folles","Saint-Jean-des-Vignes","","45.8738","4.6848"
"958","Jardin Botanique Alpin de la Jaÿsinia","Samoëns","","46.0759","6.7553"
"959","Jardin Botanique du Col de Saverne","Saverne","","48.7417","7.3620"
"960","Château de La Grange","Savigny Le Temple","","48.60008","2.56192"
"961","Jardin Botanique Alpin "" Chanousia ""","Seez","","45.6501","6.8544"
"962","Harmas de Fabre","Sérignan du Comtat","","44.18807","4.84032"
"963","Conservatoire Botanique Pierre Fabre","SOUAL","","43.55507","2.11613"
"964","Jardin Botanique ""Les Cedres""","St Jean Cap Ferrat","Alpes Maritimes","43.6962","7.3287"
"965","Laboratoire de Botanique & Biologie Vegetale","ST MARTIN D'HERES","","45.1667","5.7678"
"966","Jardin Botanique de l'Université de Strasbourg","Strasbourg","","48.5829","7.7437"
"967","Jardin Botanique de Talence","Talence","","44.8127","-0.5907"
"968","Jardin Botanique de l'Institut National","Thiverval-grignon","","48.8418","1.9321"
"969","Jardin Botanique et Arboretum Henri Gaussen","Toulouse","","43.6037","1.4429"
"970","Serres Pédagogiques","TOURCOING","","50.72476","3.16662"
"971","Jardin Botanique de la Ville et de l'Universite de TOURS","Tours","France","47.3902","0.6888"
"972","Jardins botaniques du Grand Nancy et de l'Université de Lorraine","Villers-lès-Nancy","Nancy","48.6603","6.1275"
"973","Jardin d‘Altitude du Haut-Chitelet.","Xonrupt-Longemer","Nancy","48.6603","6.1275"
"974","Institut de Botanique","Cayenne","","4.9346","-52.3303"
"975","Jardin Botanique Municipal","Cayenne","","4.9346","-52.3303"
"976","Arboretum de Sibangu","Libreville","","0.3857","9.4496"
"977","The Botanic Garden","Bakau","","13.4784","-16.6755"
"978","Batumi Botanical Garden","Batumi","Georgia","41.6517","41.6561"
"979","Garden for Medicinal Plants","Kobuleti","","41.8176","41.7866"
"980","Kutaisi Botanical Garden","Kutaisi","","42.27944","42.71031"
"981","Sukhumi Botanical Garden","Sukhumi","","43.0073","40.9891"
"982","National Botanical Garden of Georgia","Tbilisi","Georgia","41.7099","44.7929"
"983","Bakuriani Alpine Botanical Garden","Village Bakuriani","","41.759508","43.521094"
"984","Schlosspark Dennenlohe -  Rhododendron Parc and Landscape Garden","","Bavaria","49.095570","10.609621"
"985","Botanisches Institut der Universität zu Köln","50674 Köln","","50.9252","6.9470"
"986","Botanischer Garten der Technischen Hochschule","Aachen","","51.5216","14.3470"
"987","Freundeskreis Botanischer Garten Aaxhen e.V.","Aachen","","50.7765","6.0836"
"988","Botanischer Garten der Stadt","Altenburg","","50.9921","12.4443"
"989","Botanischer Lehr - und Schaugarten","Augsburg","","48.3441","10.9195"
"990","Forstaboretum der Niedersaechsischen Landesforstverwaltung","Bad Grund","","51.8061","10.2302"
"991","Botanical Garden in Bad Langensalza","Bad Langensalza","","51.1051","10.5778"
"992","Pflanzengarten","Bad-schandau","","50.9019","14.1863"
"993","Botanischer Garten Baden-Baden","Baden-baden","","48.7662","8.2381"
"994","Staatliche Baderverwaltung","Badenweiler","","47.7942","7.6836"
"995","Oekologisch-Botanischer Garten Universitaet Bayreuth","Bayreuth","","51.5216","14.3470"
"996","Kurpark Bad Bellingen","Bellingen","","50.5930","7.9040"
"997","Botanischer Garten und Botanisches Museum Berlin","Berlin","Berlin","52.4500","13.3000"
"998","Botanischer Garten und Botanisches Museum Berlin - Seed Bank","Berlin","Berlin","52.4500","13.3000"
"999","Institute fur Biologie der Technischen Universitat Berlin","Berlin","","52.5182","13.3167"
"1000","Späth-Arboretum der Humboldt-Universität zu Berlin","Berlin","","52.5234","13.4114"
"1001","Botanischer Garten der Stadt Bielefeld","Bielefeld","","52.0072","8.5216"
"1002","Botanischer Garten der Ruhr-Universität Bochum","Bochum","","51.4451","7.2580"
"1003","Botanische Gärten der Universität Bonn","Bonn","","50.7333","7.1000"
"1004","Arzneipflanzengarten des Institutes fuer Pharmazeutische Biologie der TU Braunschweig","Braunschweig","","52.2641","10.5263"
"1005","Botanischer Garten der Technischen Universität","Braunschweig","","52.2805","10.5356"
"1006","Botanischer Garten und Rhododendron-Park","Bremen","","53.1091","8.8553"
"1007","Botanischer Garten der Stadt Chemnitz","Chemnitz","","50.8694","12.9140"
"1008","Botanischer Garten der Technischen Universitaet Darmstadt","Darmstadt","","49.8833","8.6833"
"1009","Botanischer Garten Rombergpark und Deutsches","Dortmund","","51.4787","7.4525"
"1010","Botanischer Garten der Technischen Universitaet Dresden","Dresden","","51.0524","13.7710"
"1011","Botanischer Garten der Stadt Duisburg  (Garden I)","Duisburg","","51.4916","6.7540"
"1012","Botanical Garden University of Duesseldorf","Dusseldorf","","51.2250","6.7756"
"1013","Forstbotanischer Garten Eberswalde","Eberswalde","","52.8480","13.8368"
"1014","Botanischer Garten der Universitat Erlangen - Nurnberg","Erlangen","","49.6032","11.0304"
"1015","Grugapark und Botanischer Garten der Stadt Essen","Essen","","51.4396","6.9795"
"1016","Universitaet GH Essen","Essen","","51.4292","7.0019"
"1017","Botanischer Garten Frankfurt am Main","Frankfurt","","50.123","8.658"
"1018","Palmengarten der Stadt Frankfurt am Main","Frankfurt am Main","","50.1236","8.6628"
"1019","Wissenschaftsgarten der Goethe Universität","Frankfurt/Main","","50.10","8.37"
"1020","Arboretum Freiburg-Günterstal","Freiburg","","48.0103","7.8865"
"1021","Botanischer Garten der Universität Freiburg","Freiburg","","48.0103","7.8865"
"1022","Sichtungsgarten Weihenstephan","Freising","","48.3898","11.6960"
"1023","Zentralinstitut fur Genetik","Gatersleben","","51.8152","11.2940"
"1024","Forschungsanstalt Geisenheim am Rhein","Geisenheim","","50.0361","7.9375"
"1025","Museum fuer Naturkunde Botanischer Garten","Gera","","50.8803","12.0812"
"1026","Botanischer Garten der Justus-Liebig Universität Giessen","Giessen","","50.3510","8.4041"
"1027","Botanischer Garten der Universitat Gottingen","Gottingen","","51.5326","9.9344"
"1028","Forstbotanischer Garten und Arboretum","Gottingen","","51.5663","9.9845"
"1029","Neuer Botanischer Garten der Universität Göttingen","Göttingen","","51.5663","9.9845"
"1030","Botanischer Garten des Nationalparkes Bayrischer Wald","Grafenau","","51.5216","14.3470"
"1031","Botanischer Garten Ernst-Moritz-Arndt-Universitat","Greifswald","","54.0842","13.3717"
"1032","Botanischer Garten der Martin-Luther-Universitat","Halle/saale","","50.5866","8.6756"
"1033","Arboretum Lohbruegge der Bundesanstalt","Hamburg","","53.5058","10.1893"
"1034","Biozentrum Klein Flottbek und Botanischer Garten","Hamburg","","53.5581","9.8433"
"1035","Botanischer Sondergarten","Hamburg","","53.5895","10.0991"
"1036","Botanischer Schulgarten Burg Schulbiologiezentrum","Hannover","","52.4060","9.6623"
"1037","Herrenhaeuser Gaerten","Hannover","","52.4060","9.6623"
"1038","Tieraeztliche Hochschule, Der Westfalenhof","Hannover","","52.3621","9.8374"
"1039","Hessische Landesanstalt fuer Forsteinrichtung Waldforschung und Waldoekologie","Hannoversch Munden","","51.4143","9.6508"
"1040","Botanischer Garten der Universität Heidelberg","Heidelberg","","49.4166","8.6666"
"1041","Botanischer Garten der tadt Hof im Stadtpark Theresienstein","Hof","","50.3246","11.9372"
"1042","Blumeninsel Mainau GmbH","Insel Mainau","","47.7278","9.1450"
"1043","Botanischer Garten der Friedrich-Schiller-Universitaet","Jena","","50.9496","11.5838"
"1044","Botanischer Garten der Universitat Karlsruhe (TH)","Karlsruhe","","49.0080","8.4037"
"1045","Botanischer Garten der Stadt Kassel","Kassel","","51.3001","9.4756"
"1046","Gesamthochschule Kassel Lehr- und Versuchsanlagen Botanik","Kassel","","51.2848","9.4073"
"1047","Botanischer Garten der Universitat Kiel","Kiel","Schleswig-Holstein","54.3413","10.1176"
"1048","Die Flora, der Botanische Garten Köln","Koeln","NRW","50.9887","6.9605"
"1049","Forstbotanischer Garten - Stadt Koeln","Koeln","","50.8833","6.9990"
"1050","Botanischer Garten der Universitat Konstanz","Konstanz","","51.5216","14.3470"
"1051","Botanischer Garten der Stadt Krefeld","Krefeld","","51.3291","6.6464"
"1052","Botanischer Garten der Universitat Leipzig","Leipzig","","51.3313","12.3919"
"1053","Arktisch-Alpiner Pflanzengarten","Leisnig","","51.1765","12.9355"
"1054","Gruson-Gewaechshaeuser Magdeburg Exotische Pflanzensammlung","Magdeburg","","52.1167","11.6387"
"1055","Botanischer Garten der Johannes Gutenberg-Universität Mainz","Mainz","","49.9951","8.2674"
"1056","Stadtpark Mannheim GmbH","Mannheim","","49.4801","8.4897"
"1057","Botanischer Garten der Philipps-Universität Marburg","Marburg","","50.4818","8.4816"
"1058","Botanischer Garten der Stadt","Moenchengladbach","","51.1941","6.4334"
"1059","Botanischer Garten Verein ""Hochchulstandort Muehlhausen""e. V.","Muehlhausen","","51.2127","10.4503"
"1060","Botanischer Garten der Westfaelischen Wilhelms Universitaet","Muenster","NRW","51.9647","7.6097"
"1061","Alpengarten auf dem Schachen","München","","48.1578","11.5053"
"1062","Hessische Landesanstalt fur Forsteinrichtung","Munden","","51.4212","9.6549"
"1063","Botanischer Garten München-Nymphenburg","Munich","Bavaria","48.1391","11.5802"
"1064","Botanischer Garten fue Gebirgsflora","Oberhof","","50.6872","10.7390"
"1065","Botanischer Garten fur Arznei-und-Gewurpflanzen","Oberholz","","51.2572","12.4707"
"1066","Botanischer Garten der Carl von Ossietzky-Universitat Oldenburg","Oldenburg","","53.1528","8.2083"
"1067","Botanischer Garten der Universitat Osnabruck","Osnabrueck","","52.2672","8.0531"
"1068","Botanischer Garten der Universitat Osnabruck- Seed Bank","Osnabrueck","","52.280932","8.028457"
"1069","Alpengarten Pforzheim","Pforzheim-wurm","","48.8737","8.7412"
"1070","Botanischer Garten der Universitat Potsdam","Potsdam","","52.3969","13.0586"
"1071","Botanischer Versuchs- und Lehrgarten","Regensburg","","48.9892","12.1035"
"1072","Genbank Bayern Arche","Regensburg","","48.993686","12.092975"
"1073","Botanic Garden of Rostock University","Rostock","","54.0901","12.1329"
"1074","Botanischer Garten der Universitaet des Saarlandes","Saarbrucken","","49.2500","7.0333"
"1075","Europa - Rosarium der Stadt Sangerhausen","Sangerhausen","","51.4751","11.2923"
"1076","Botanischer Garten","Schellerau","","50.7583","13.6443"
"1077","Institiut fuer zeitgemaesse Physiotherapie","Selm","","51.6882","7.4789"
"1078","Botanischer Garten der Stadt Solingen","Solingen","","51.2005","7.0785"
"1079","Arboretum der Nieders. Forstl. Versuchsanstalt","Staufenberg","","51.3436","9.6617"
"1080","Botanischer Garten der Universitat","Stuttgart","","48.7771","9.1807"
"1081","Zoologisch-Botanischer Garten Wilhelma","Stuttgart","","51.5216","14.3470"
"1082","Hohenheimer Gärten","Stuttgart-Hohenheim","Baden-Württemberg","48.7140","9.2161"
"1083","Forstbotanischer Garten der Technischen Universitaet Dresden","Tharandt","","50.9809","13.5841"
"1084","Botanischer Garten der Universitat Tubingen","Tubingen","","48.5498","9.0423"
"1085","Botanischer Garten der Universität Ulm","Ulm","","48.3996","9.9966"
"1086","Schau- und Sichtungsgarten","Weinheim","","49.5521","8.6657"
"1087","Brockengarden","Wernigerode","","51.8514","10.7830"
"1088","Botanischer Garten der Stadt Wilhelmshaven","Wilhelmshaven","","53.5388","8.1420"
"1089","Gewachshaus fur tropische Nutzpflanzen","Witzenhausen","","51.3394","9.8564"
"1090","Staatliche Schlosser und Garten Worlitz","Worlitz","","51.8428","12.4185"
"1091","Botanischer Garten der Stadt Wuppertal","Wuppertal","","51.2641","7.1562"
"1092","Botanischer Garten der Universität Würzburg","Würzburg","","49.7942","9.9274"
"1093","Aburi Botanic Gardens","Aburi","","5.8469","-0.1755"
"1094","Legon Botanical Gardens","Accra","Accra","5.5447","-0.2065"
"1095","Bunso Arboretum","Bunso","","6.2815","-0.4655"
"1096","Cape Coast University Botanic Garden","Cape Coast","","5.1043","-1.2543"
"1097","Kwame Nkrumah University of Science & Technology, Kumasi","Kumasi","","6.6986","-1.6243"
"1098","Ghana Permaculture Institute","Techiman","","7.6672215","-1.8589535"
"1099","Gibraltar Botanic Gardens","Gibraltar","","36.1449","-5.3532"
"1100","The Apollon - Delphi Botanic Garden","Amfissa PO: 33054","Delphi","38.525667","22.391718"
"1101","Botanic Garden of the National and Kapodistrian University of Athens","Athens","","37.9894","23.7444"
"1102","Botanic Garden of the National and Kapodistrian University of Athens SEED BANK","Athens","","37.9894","23.7444"
"1103","Hippocrates Botanical Garden in Markopoulo of APIVITA & APIGEA","Athens","","37.8821687","23.9256182"
"1104","Ioulia & Alexandros N. Diomidis Botanical Garden","Athens","","37.9894","23.7444"
"1105","Julia & Alexander N. Diomides Botanic Garden- Seed Bank","Athens","","37.9894","23.7444"
"1106","National Garden Athens","Athens","","37.9894","23.7444"
"1107","National Garden- Seed Bank","Athens","","37.967756","23.777153"
"1108","Philodassiki Botanic Garden","Athens","","37.9924","23.7378"
"1109","Cephalonia Botanica","Cephalonia","","38.178162","20.48808"
"1110","Park for the Preservation of Flora and Fauna","Chania","Crete","35.5090","24.0253"
"1111","The Mediterranean Agronomic Institute of Chania","Chania","Crete","35.5090","24.0253"
"1112","The Mediterranean Agronomic Institute of Chania- Seed Bank","Chania","Crete","35.494127","24.048661"
"1113","Botanical Garden of the Aegean","Chios Island","","38.3755288","25.7168018"
"1114","Hippocrates Botanical Garden of Kos","Kos","Athens","36.87439","27.26673"
"1115","Hippocrates Botanic Garden of Lemnos, Department of Food Science and Nutrition, University of the Ae","Myrina","Lemnos","39.085037","26.568975"
"1116","Zelios Gardens","Nafpaktos","Aitoloakarnania","38.3873264","21.6117662"
"1117","Botanic Garden of Stavroupoli","Thessaloniki","","40.6398","22.9322"
"1118","Forest Botanic Garden","Thessaloniki","","40.6398","22.9322"
"1119","The Balkan Botanic Garden at Kroussia  Mountains","Thessaloniki","","40.6398","22.9322"
"1120","The Balkan Botanic Garden at Kroussia Mountains- Seed Bank","Thessaloniki","","40.6398","22.9322"
"1121","Issittup Naasui","Sisimiut","","66.9347461","-53.6812885"
"1122","Botanic Gardens of Grenada","ST GEORGE'S","","12.0539","-61.7486"
"1123","Jardin Botanique","Basse-terre","","15.9985","-61.7220"
"1124","Jardin Exotique du Fort Napoleon","Terre De Haut","","15.8666","-61.5833"
"1125","Jardin Botanico Nacional","Ciudad de Guatemala","","15.7834","-90.2307"
"1126","Jardín Botánico CECON-USAC","Guatemala","Guatemala","14.614392","-90.5158542"
"1127","Fundacion Defensores de la Naturaleza","Guatemala City","","14.5955096","-90.5253548"
"1128","Jardín Botánico CECON-USAC","Guatemala City","","14.6247","-90.5328"
"1129","Camayenne Botanic Garden","Conakry","","9.53012","-13.68616"
"1130","Georgetown Botanical Gardens","Georgetown","","6.7921","-58.1684"
"1131","Iwokrama International Centre for Rainforest Conservation and Development","Georgetown","","6.8111055","-58.1662884"
"1132","Botanical Garden Cayes","Les Cayes","","18.9711","-72.2852"
"1133","Jardin Botanique National d'Haiti","Port au Prince","","18.54239","-72.3433593"
"1134","The Katherine Dunham Botanic Garden","Port-au-prince","","18.5392","-72.3287"
"1135","Biblioteca Wilson Popenoe","F. Morazan","","15.3269","-87.6013"
"1136","Blue Harbour Tropical Arboretum","Isias de la Bahia","","15.5198897","-88.0555296"
"1137","Zamorano Botanical Garden","San Antonio de Oriente","Francisco Morazan","14.011152","-87.013253"
"1138","Jardin Botanico Municipal Perez Estrada","San Pedro Sula","","15.5036","-88.0046"
"1139","Escuela Agricola Panamericana","Tegucigalpa","","14.0839155","-87.205376"
"1140","Lancetilla Botanic Garden & Research Center","Tela","","15.7748","-87.4568"
"1141","Alcsúti Arboretum","Alcsútdoboz","","47.423333","18.598333"
"1142","Folly Arboretum and Winery","Badacsonyors","","46.8091523","17.5413632"
"1143","Budakeszi Botanic and Recreation Garden","Budapest","","47.5255416","18.8680543"
"1144","Budapest Zoo & Botanical Garden","Budapest","","47.5101","19.0936"
"1145","Corvinus Egyetem, Budai Arboretum","Budapest","","47.4763","19.0224"
"1146","Dept. of Bot. & Soroksar Botanic Garden","Budapest","","47.4763","19.0224"
"1147","Eötvös Loránd University Botanic Garden","Budapest","","47.5000","19.0833"
"1148","Fõvárosi Állat- és Növénykert","Budapest","","47.5000","19.1666"
"1149","Diószegi Sámuel Botanic Garden","Debrecen","","47.5533","21.6224"
"1150","University of Debrecen, Botanic Garden(Hortus Botanicus Universitatis Debreceniensis, Hungaria)","Debrecen","","47.5299","21.6360"
"1151","Pannonhalmi Foapátság Arborétum","Pannonhalma","","47.5522289","17.7597224"
"1152","Pécsi Tudományegyetem, Botanikus Kert","Pécs","","46.0759","18.2047"
"1153","Arboretum of Sárvár","Sárvár","","47.2524","16.9375"
"1154","Nyugat-Magyarországi Egyetem, Botanikus Kert","Sopron","","47.6848","16.5830"
"1155","Botanical Garden of Szeged University","Szeged","","46.9615","20.1961"
"1156","Hungarian Academy of Sciences - Botanic Garden","Vacratot","","47.7108","19.2351"
"1157","National Botanic Garden of Vacratot","Vacratot","","47.7093965","19.2313569"
"1158","National Botanic Garden of Vacratot-Seed Bank","Vacratot","","47.7093965","19.2313569"
"1159","Lystigardur Akureyrar","Akureyri","","65.6838","-18.1104"
"1160","Skrúður","Núpur","","65.928636","-23.573391"
"1161","Hortus Botanicus Reykjavikensis","Reykjavik","","64.1353","-21.8952"
"1162","Peermade Development Society","","Kerala","9.5747911","76.9981329"
"1163","Botanical Garden Agra College","Agra","","27.1777","78.0093"
"1164","Gujarat University USSC Botanic Garden","Ahmedabad","","23.0395","72.5660"
"1165","Sarabhai Foundation Botanic Gardens","Ahmedabad","","23.0395","72.5660"
"1166","Aligarh Muslim University Botanic Garden","Aligarh","","27.8938","78.0681"
"1167","Experimental Garden","Allahabad","","25.4429","81.8284"
"1168","Kulbhaskar Ashram Post Graduate Botanic Garden","Allahabad","","25.4429","81.8284"
"1169","Roxburgh Botanic Garden","Allahabad","","25.4429","81.8284"
"1170","Surya Kunj","Almora","","27.2073","78.0143"
"1171","Botanical Garden Guru Nanak Dev University","Amritsar","Punjab","31.6308","74.8715"
"1172","Botanic Garden","Anand","","22.5608","72.9547"
"1173","Marathwada University Botanic Garden","Aurangabad","","19.8853","75.3196"
